[{"id":258,"department_code":"01","insee_code":"01285","zip_code":"01600","name":"Parcieux","slug":"parcieux","gps_lat":45.91995104166666,"gps_lng":4.83132791666667},{"id":259,"department_code":"01","insee_code":"01286","zip_code":"01300","name":"Parves et Nattages","slug":"parves et nattages","gps_lat":45.73542168067225,"gps_lng":5.7456384873949595},{"id":260,"department_code":"01","insee_code":"01288","zip_code":"01630","name":"Péron","slug":"peron","gps_lat":46.18695894444444,"gps_lng":5.93071888888889},{"id":261,"department_code":"01","insee_code":"01289","zip_code":"01960","name":"Péronnas","slug":"peronnas","gps_lat":46.1697198924731,"gps_lng":5.21130043010753},{"id":262,"department_code":"01","insee_code":"01290","zip_code":"01800","name":"Pérouges","slug":"perouges","gps_lat":45.88580772413792,"gps_lng":5.17544951724138},{"id":263,"department_code":"01","insee_code":"01291","zip_code":"01540","name":"Perrex","slug":"perrex","gps_lat":46.24887068965517,"gps_lng":4.97028350574713},{"id":264,"department_code":"01","insee_code":"01293","zip_code":"01430","name":"Peyriat","slug":"peyriat","gps_lat":46.14735705882352,"gps_lng":5.51122558823529},{"id":265,"department_code":"01","insee_code":"01294","zip_code":"01300","name":"Peyrieu","slug":"peyrieu","gps_lat":45.67928776470588,"gps_lng":5.67848270588235},{"id":266,"department_code":"01","insee_code":"01295","zip_code":"01140","name":"Peyzieux-sur-Saône","slug":"peyzieux sur saone","gps_lat":46.12481281553399,"gps_lng":4.82357252427185},{"id":267,"department_code":"01","insee_code":"01296","zip_code":"01270","name":"Pirajoux","slug":"pirajoux","gps_lat":46.38780884868422,"gps_lng":5.2729334539473705},{"id":268,"department_code":"01","insee_code":"01297","zip_code":"01120","name":"Pizay","slug":"pizay","gps_lat":45.88580637681162,"gps_lng":5.09044253623189},{"id":269,"department_code":"01","insee_code":"01298","zip_code":"01130","name":"Plagne","slug":"plagne","gps_lat":46.1845596969697,"gps_lng":5.72276505050505},{"id":271,"department_code":"01","insee_code":"01301","zip_code":"01310","name":"Polliat","slug":"polliat","gps_lat":46.24678340579711,"gps_lng":5.1373959057971},{"id":272,"department_code":"01","insee_code":"01302","zip_code":"01350","name":"Pollieu","slug":"pollieu","gps_lat":45.79210541666668,"gps_lng":5.74926479166667},{"id":273,"department_code":"01","insee_code":"01303","zip_code":"01450","name":"Poncin","slug":"poncin","gps_lat":46.08846091428571,"gps_lng":5.41688788571429},{"id":274,"department_code":"01","insee_code":"01304","zip_code":"01160","name":"Pont-d'Ain","slug":"pont d ain","gps_lat":46.05665440000001,"gps_lng":5.34724504},{"id":275,"department_code":"01","insee_code":"01305","zip_code":"01190","name":"Pont-de-Vaux","slug":"pont de vaux","gps_lat":46.43933744047619,"gps_lng":4.93111488095238},{"id":276,"department_code":"01","insee_code":"01306","zip_code":"01290","name":"Pont-de-Veyle","slug":"pont de veyle","gps_lat":46.2633027631579,"gps_lng":4.8831168421052595},{"id":277,"department_code":"01","insee_code":"01307","zip_code":"01460","name":"Port","slug":"port","gps_lat":46.15769382352941,"gps_lng":5.57695367647059},{"id":278,"department_code":"01","insee_code":"01308","zip_code":"01550","name":"Pougny","slug":"pougny","gps_lat":46.14814742857142,"gps_lng":5.9473418095238095},{"id":279,"department_code":"01","insee_code":"01309","zip_code":"01250","name":"Pouillat","slug":"pouillat","gps_lat":46.32487872549019,"gps_lng":5.42527882352941},{"id":280,"department_code":"01","insee_code":"01310","zip_code":"01300","name":"Prémeyzel","slug":"premeyzel","gps_lat":45.68328398373986,"gps_lng":5.64482243902439},{"id":281,"department_code":"01","insee_code":"01311","zip_code":"01110","name":"Prémillieu","slug":"premillieu","gps_lat":45.87401209090907,"gps_lng":5.56359254545454},{"id":282,"department_code":"01","insee_code":"01313","zip_code":"01280","name":"Prévessin-Moëns","slug":"prevessin moens","gps_lat":46.26005159509202,"gps_lng":6.07310380368098},{"id":283,"department_code":"01","insee_code":"01314","zip_code":"01160","name":"Priay","slug":"priay","gps_lat":46.02245064,"gps_lng":5.28135056},{"id":976,"department_code":"02","insee_code":"02581","zip_code":"02220","name":"Paars","slug":"paars","gps_lat":49.33185489361703,"gps_lng":3.60289978723404},{"id":977,"department_code":"02","insee_code":"02582","zip_code":"02160","name":"Paissy","slug":"paissy","gps_lat":49.4245840909091,"gps_lng":3.69464772727273},{"id":978,"department_code":"02","insee_code":"02583","zip_code":"02860","name":"Pancy-Courtecon","slug":"pancy courtecon","gps_lat":49.46857413793104,"gps_lng":3.6520057471264398},{"id":979,"department_code":"02","insee_code":"02584","zip_code":"02260","name":"Papleux","slug":"papleux","gps_lat":50.01559488372092,"gps_lng":3.87883186046512},{"id":980,"department_code":"02","insee_code":"02585","zip_code":"02210","name":"Parcy-et-Tigny","slug":"parcy et tigny","gps_lat":49.26908232758625,"gps_lng":3.32632086206897},{"id":981,"department_code":"02","insee_code":"02586","zip_code":"02360","name":"Parfondeval","slug":"parfondeval","gps_lat":49.74124249999998,"gps_lng":4.1600243},{"id":982,"department_code":"02","insee_code":"02587","zip_code":"02840","name":"Parfondru","slug":"parfondru","gps_lat":49.53151333333332,"gps_lng":3.70776770114942},{"id":983,"department_code":"02","insee_code":"02588","zip_code":"02160","name":"Pargnan","slug":"pargnan","gps_lat":49.39168480519479,"gps_lng":3.70537545454546},{"id":984,"department_code":"02","insee_code":"02589","zip_code":"02000","name":"Pargny-Filain","slug":"pargny filain","gps_lat":49.46646599999998,"gps_lng":3.542548},{"id":985,"department_code":"02","insee_code":"02590","zip_code":"02330","name":"Pargny-la-Dhuys","slug":"pargny la dhuys","gps_lat":48.95584204545457,"gps_lng":3.56464318181818},{"id":986,"department_code":"02","insee_code":"02591","zip_code":"02270","name":"Pargny-les-Bois","slug":"pargny les bois","gps_lat":49.7317914893617,"gps_lng":3.61810744680851},{"id":987,"department_code":"02","insee_code":"02592","zip_code":"02240","name":"Parpeville","slug":"parpeville","gps_lat":49.7936604950495,"gps_lng":3.56507059405941},{"id":988,"department_code":"02","insee_code":"02593","zip_code":"02200","name":"Pasly","slug":"pasly","gps_lat":49.40239309090911,"gps_lng":3.29646927272727},{"id":989,"department_code":"02","insee_code":"02594","zip_code":"02470","name":"Passy-en-Valois","slug":"passy en valois","gps_lat":49.16330448979592,"gps_lng":3.18277428571428},{"id":990,"department_code":"02","insee_code":"02595","zip_code":"02850","name":"Passy-sur-Marne","slug":"passy sur marne","gps_lat":49.06693509803922,"gps_lng":3.57805882352941},{"id":991,"department_code":"02","insee_code":"02596","zip_code":"02310","name":"Pavant","slug":"pavant","gps_lat":48.955065,"gps_lng":3.2807432},{"id":992,"department_code":"02","insee_code":"02598","zip_code":"02200","name":"Pernant","slug":"pernant","gps_lat":49.3811886885246,"gps_lng":3.22811245901639},{"id":993,"department_code":"02","insee_code":"02599","zip_code":"02300","name":"Pierremande","slug":"pierremande","gps_lat":49.56810204819278,"gps_lng":3.24954819277109},{"id":994,"department_code":"02","insee_code":"02600","zip_code":"02350","name":"Pierrepont","slug":"pierrepont","gps_lat":49.65013559633031,"gps_lng":3.79519541284404},{"id":995,"department_code":"02","insee_code":"02601","zip_code":"02190","name":"Pignicourt","slug":"pignicourt","gps_lat":49.41315731958763,"gps_lng":4.0275893814433},{"id":996,"department_code":"02","insee_code":"02602","zip_code":"02320","name":"Pinon","slug":"pinon","gps_lat":49.49321009009006,"gps_lng":3.46238207207207},{"id":997,"department_code":"02","insee_code":"02604","zip_code":"02480","name":"Pithon","slug":"pithon","gps_lat":49.75633000000001,"gps_lng":3.10135},{"id":998,"department_code":"02","insee_code":"02605","zip_code":"02240","name":"Pleine-Selve","slug":"pleine selve","gps_lat":49.79632729729731,"gps_lng":3.5244010810810797},{"id":1000,"department_code":"02","insee_code":"02607","zip_code":"02200","name":"Ploisy","slug":"ploisy","gps_lat":49.33181818181818,"gps_lng":3.28366545454546},{"id":1001,"department_code":"02","insee_code":"02608","zip_code":"02140","name":"Plomion","slug":"plomion","gps_lat":49.81429363636366,"gps_lng":4.01778590909091},{"id":1002,"department_code":"02","insee_code":"02609","zip_code":"02860","name":"Ployart-et-Vaurseine","slug":"ployart et vaurseine","gps_lat":49.49456068965517,"gps_lng":3.739095},{"id":1003,"department_code":"02","insee_code":"02610","zip_code":"02200","name":"Pommiers","slug":"pommiers","gps_lat":49.39679069767443,"gps_lng":3.28175441860465},{"id":1004,"department_code":"02","insee_code":"02612","zip_code":"02160","name":"Pont-Arcy","slug":"pont arcy","gps_lat":49.39144079999999,"gps_lng":3.6231276},{"id":1005,"department_code":"02","insee_code":"02613","zip_code":"02160","name":"Pontavert","slug":"pontavert","gps_lat":49.41516701388891,"gps_lng":3.82427013888889},{"id":1006,"department_code":"02","insee_code":"02614","zip_code":"02490","name":"Pontru","slug":"pontru","gps_lat":49.92137254054057,"gps_lng":3.20017389189189},{"id":1007,"department_code":"02","insee_code":"02615","zip_code":"02490","name":"Pontruet","slug":"pontruet","gps_lat":49.91614548076924,"gps_lng":3.23141288461539},{"id":1008,"department_code":"02","insee_code":"02616","zip_code":"02380","name":"Pont-Saint-Mard","slug":"pont saint mard","gps_lat":49.50123417721518,"gps_lng":3.28450253164557},{"id":1009,"department_code":"02","insee_code":"02617","zip_code":"02270","name":"Pouilly-sur-Serre","slug":"pouilly sur serre","gps_lat":49.68625035714287,"gps_lng":3.58454869047619},{"id":1010,"department_code":"02","insee_code":"02618","zip_code":"02110","name":"Prémont","slug":"premont","gps_lat":50.01244711538462,"gps_lng":3.39552634615385},{"id":1011,"department_code":"02","insee_code":"02619","zip_code":"02320","name":"Prémontré","slug":"premontre","gps_lat":49.5456064516129,"gps_lng":3.42067306451613},{"id":1012,"department_code":"02","insee_code":"02620","zip_code":"02370","name":"Presles-et-Boves","slug":"presles et boves","gps_lat":49.39407857142857,"gps_lng":3.53846095238095},{"id":1013,"department_code":"02","insee_code":"02621","zip_code":"02860","name":"Presles-et-Thierny","slug":"presles et thierny","gps_lat":49.51768232142855,"gps_lng":3.62118589285714},{"id":1014,"department_code":"02","insee_code":"02622","zip_code":"02470","name":"Priez","slug":"priez","gps_lat":49.13579716417912,"gps_lng":3.26170134328358},{"id":1015,"department_code":"02","insee_code":"02623","zip_code":"02140","name":"Prisces","slug":"prisces","gps_lat":49.77554265957446,"gps_lng":3.86158638297872},{"id":1016,"department_code":"02","insee_code":"02624","zip_code":"02120","name":"Proisy","slug":"proisy","gps_lat":49.89527315068492,"gps_lng":3.75214273972603},{"id":1017,"department_code":"02","insee_code":"02625","zip_code":"02120","name":"Proix","slug":"proix","gps_lat":49.90241175438597,"gps_lng":3.57366754385965},{"id":1018,"department_code":"02","insee_code":"02626","zip_code":"02190","name":"Prouvais","slug":"prouvais","gps_lat":49.46895642105262,"gps_lng":3.97514231578947},{"id":1019,"department_code":"02","insee_code":"02627","zip_code":"02190","name":"Proviseux-et-Plesnoy","slug":"proviseux et plesnoy","gps_lat":49.46997052631578,"gps_lng":4.01401964912281},{"id":1020,"department_code":"02","insee_code":"02628","zip_code":"02600","name":"Puiseux-en-Retz","slug":"puiseux en retz","gps_lat":49.29456404255318,"gps_lng":3.1333629787234},{"id":1021,"department_code":"02","insee_code":"02629","zip_code":"02120","name":"Puisieux-et-Clanlieu","slug":"puisieux et clanlieu","gps_lat":49.84436349206351,"gps_lng":3.65950507936508},{"id":1170,"department_code":"02","insee_code":"02784","zip_code":"02630","name":"Petit-Verly","slug":"petit verly","gps_lat":49.95733246753247,"gps_lng":3.56213571428571},{"id":1418,"department_code":"03","insee_code":"03203","zip_code":"03230","name":"Paray-le-Frésil","slug":"paray le fresil","gps_lat":46.65517954545454,"gps_lng":3.60327889610389},{"id":1419,"department_code":"03","insee_code":"03204","zip_code":"03500","name":"Paray-sous-Briailles","slug":"paray sous briailles","gps_lat":46.28893606060608,"gps_lng":3.3671663636363602},{"id":1420,"department_code":"03","insee_code":"03205","zip_code":"03120","name":"Périgny","slug":"perigny","gps_lat":46.24414592857142,"gps_lng":3.5583650000000002},{"id":1422,"department_code":"03","insee_code":"03207","zip_code":"03470","name":"Pierrefitte-sur-Loire","slug":"pierrefitte sur loire","gps_lat":46.49787302040817,"gps_lng":3.81107359183674},{"id":1424,"department_code":"03","insee_code":"03209","zip_code":"03800","name":"Poëzat","slug":"poezat","gps_lat":46.0746741025641,"gps_lng":3.22576461538462},{"id":1425,"department_code":"03","insee_code":"03210","zip_code":"03320","name":"Pouzy-Mésangy","slug":"pouzy mesangy","gps_lat":46.69480814814815,"gps_lng":3.00330708994709},{"id":1426,"department_code":"03","insee_code":"03211","zip_code":"03410","name":"Prémilhat","slug":"premilhat","gps_lat":46.30406558139535,"gps_lng":2.53927395348837},{"id":1655,"department_code":"04","insee_code":"04145","zip_code":"04200","name":"Peipin","slug":"peipin","gps_lat":44.13818265151517,"gps_lng":5.94368477272727},{"id":1656,"department_code":"04","insee_code":"04148","zip_code":"04120","name":"Peyroules","slug":"peyroules","gps_lat":43.81079632183905,"gps_lng":6.65424413793103},{"id":1657,"department_code":"04","insee_code":"04149","zip_code":"04310","name":"Peyruis","slug":"peyruis","gps_lat":44.04292683673469,"gps_lng":5.9283309693877495},{"id":1658,"department_code":"04","insee_code":"04150","zip_code":"05130","name":"Piégut","slug":"piegut","gps_lat":44.45392714285714,"gps_lng":6.12590657142857},{"id":1659,"department_code":"04","insee_code":"04151","zip_code":"04300","name":"Pierrerue","slug":"pierrerue","gps_lat":43.96460700854703,"gps_lng":5.83884897435897},{"id":1660,"department_code":"04","insee_code":"04152","zip_code":"04860","name":"Pierrevert","slug":"pierrevert","gps_lat":43.80751758620691,"gps_lng":5.72305235632184},{"id":1661,"department_code":"04","insee_code":"04154","zip_code":"05160","name":"Pontis","slug":"pontis","gps_lat":44.49950786885245,"gps_lng":6.3714237704918},{"id":1662,"department_code":"04","insee_code":"04155","zip_code":"04420","name":"Prads-Haute-Bléone","slug":"prads haute bleone","gps_lat":44.21047430079155,"gps_lng":6.45284751978892},{"id":1663,"department_code":"04","insee_code":"04156","zip_code":"04700","name":"Puimichel","slug":"puimichel","gps_lat":43.98243164948453,"gps_lng":6.03324273195876},{"id":1664,"department_code":"04","insee_code":"04157","zip_code":"04410","name":"Puimoisson","slug":"puimoisson","gps_lat":43.87173701754389,"gps_lng":6.1254152631579},{"id":1826,"department_code":"05","insee_code":"05100","zip_code":"05000","name":"Pelleautier","slug":"pelleautier","gps_lat":44.51052609589043,"gps_lng":6.00624465753425},{"id":1831,"department_code":"05","insee_code":"05104","zip_code":"05500","name":"Poligny","slug":"poligny","gps_lat":44.68653596491228,"gps_lng":6.03677842105263},{"id":1832,"department_code":"05","insee_code":"05106","zip_code":"05230","name":"Prunières","slug":"prunieres","gps_lat":44.53843755244755,"gps_lng":6.33892181818182},{"id":1833,"department_code":"05","insee_code":"05107","zip_code":"05100","name":"Puy-Saint-André","slug":"puy saint andre","gps_lat":44.88667327102802,"gps_lng":6.57304607476636},{"id":1834,"department_code":"05","insee_code":"05108","zip_code":"05200","name":"Puy-Saint-Eusèbe","slug":"puy saint eusebe","gps_lat":44.56362731182794,"gps_lng":6.40731559139785},{"id":1835,"department_code":"05","insee_code":"05109","zip_code":"05100","name":"Puy-Saint-Pierre","slug":"puy saint pierre","gps_lat":44.89782811594203,"gps_lng":6.60973391304348},{"id":1836,"department_code":"05","insee_code":"05110","zip_code":"05290","name":"Puy-Saint-Vincent","slug":"puy saint vincent","gps_lat":44.81573258064516,"gps_lng":6.46078782258065},{"id":1837,"department_code":"05","insee_code":"05111","zip_code":"05200","name":"Puy-Sanières","slug":"puy sanieres","gps_lat":44.55144640625001,"gps_lng":6.43674078125},{"id":1998,"department_code":"06","insee_code":"06090","zip_code":"06580","name":"Pégomas","slug":"pegomas","gps_lat":43.58730737288136,"gps_lng":6.92034389830509},{"id":1999,"department_code":"06","insee_code":"06091","zip_code":"06440","name":"Peille","slug":"peille","gps_lat":43.80716915789476,"gps_lng":7.40651919298246},{"id":2000,"department_code":"06","insee_code":"06092","zip_code":"06440","name":"Peillon","slug":"peillon","gps_lat":43.77123012903227,"gps_lng":7.36698903225807},{"id":2002,"department_code":"06","insee_code":"06094","zip_code":"06470","name":"Péone","slug":"peone","gps_lat":44.12996669456067,"gps_lng":6.92270481171548},{"id":2003,"department_code":"06","insee_code":"06095","zip_code":"06530","name":"Peymeinade","slug":"peymeinade","gps_lat":43.63424409356728,"gps_lng":6.87950637426901},{"id":2004,"department_code":"06","insee_code":"06096","zip_code":"06260","name":"Pierlas","slug":"pierlas","gps_lat":44.03183992857142,"gps_lng":7.01666464285714},{"id":2005,"department_code":"06","insee_code":"06097","zip_code":"06910","name":"Pierrefeu","slug":"pierrefeu","gps_lat":43.88444556701035,"gps_lng":7.07457701030928},{"id":2006,"department_code":"06","insee_code":"06098","zip_code":"06260","name":"Puget-Rostang","slug":"puget rostang","gps_lat":43.99965493506492,"gps_lng":6.93003073593073},{"id":2007,"department_code":"06","insee_code":"06099","zip_code":"06260","name":"Puget-Théniers","slug":"puget theniers","gps_lat":43.95252827027024,"gps_lng":6.90529518918919},{"id":2238,"department_code":"07","insee_code":"07170","zip_code":"07410","name":"Pailharès","slug":"pailhares","gps_lat":45.07460831395351,"gps_lng":4.55497360465116},{"id":2239,"department_code":"07","insee_code":"07171","zip_code":"07230","name":"Payzac","slug":"payzac","gps_lat":44.45545569230769,"gps_lng":4.14796523076923},{"id":2240,"department_code":"07","insee_code":"07172","zip_code":"07340","name":"Peaugres","slug":"peaugres","gps_lat":45.28501209876544,"gps_lng":4.7407987654321},{"id":2241,"department_code":"07","insee_code":"07173","zip_code":"07450","name":"Péreyres","slug":"pereyres","gps_lat":44.77708228070176,"gps_lng":4.25758192982456},{"id":2242,"department_code":"07","insee_code":"07174","zip_code":"07340","name":"Peyraud","slug":"peyraud","gps_lat":45.29515786516853,"gps_lng":4.77615629213483},{"id":2244,"department_code":"07","insee_code":"07176","zip_code":"07230","name":"Planzolles","slug":"planzolles","gps_lat":44.48623678899083,"gps_lng":4.15931614678899},{"id":2245,"department_code":"07","insee_code":"07177","zip_code":"07300","name":"Plats","slug":"plats","gps_lat":45.0162222222222,"gps_lng":4.77683895424837},{"id":2246,"department_code":"07","insee_code":"07178","zip_code":"07380","name":"Pont-de-Labeaume","slug":"pont de labeaume","gps_lat":44.66618954545453,"gps_lng":4.29529829545455},{"id":2247,"department_code":"07","insee_code":"07179","zip_code":"07000","name":"Pourchères","slug":"pourcheres","gps_lat":44.7412936904762,"gps_lng":4.51181571428571},{"id":2249,"department_code":"07","insee_code":"07182","zip_code":"07380","name":"Prades","slug":"prades","gps_lat":44.63383355140187,"gps_lng":4.30785841121495},{"id":2250,"department_code":"07","insee_code":"07183","zip_code":"07120","name":"Pradons","slug":"pradons","gps_lat":44.47192303370786,"gps_lng":4.37694370786517},{"id":2251,"department_code":"07","insee_code":"07184","zip_code":"07000","name":"Pranles","slug":"pranles","gps_lat":44.78627754385966,"gps_lng":4.57452122807018},{"id":2252,"department_code":"07","insee_code":"07185","zip_code":"07290","name":"Préaux","slug":"preaux","gps_lat":45.13982374999999,"gps_lng":4.6544961718749995},{"id":2253,"department_code":"07","insee_code":"07186","zip_code":"07000","name":"Privas","slug":"privas","gps_lat":44.72443155172416,"gps_lng":4.59073454022988},{"id":2254,"department_code":"07","insee_code":"07187","zip_code":"07110","name":"Prunet","slug":"prunet","gps_lat":44.59494702702704,"gps_lng":4.25626648648649},{"id":2717,"department_code":"08","insee_code":"08338","zip_code":"08310","name":"Pauvres","slug":"pauvres","gps_lat":49.41216376811595,"gps_lng":4.49566463768116},{"id":2718,"department_code":"08","insee_code":"08339","zip_code":"08300","name":"Perthes","slug":"perthes","gps_lat":49.4482159602649,"gps_lng":4.35975218543046},{"id":2719,"department_code":"08","insee_code":"08340","zip_code":"08190","name":"Poilcourt-Sydney","slug":"poilcourt sydney","gps_lat":49.4241621875,"gps_lng":4.09264},{"id":2720,"department_code":"08","insee_code":"08341","zip_code":"08430","name":"Poix-Terron","slug":"poix terron","gps_lat":49.64504320388347,"gps_lng":4.6545108737864105},{"id":2721,"department_code":"08","insee_code":"08342","zip_code":"08140","name":"Pouru-aux-Bois","slug":"pouru aux bois","gps_lat":49.71487399999998,"gps_lng":5.10279336842105},{"id":2722,"department_code":"08","insee_code":"08343","zip_code":"08140","name":"Pouru-Saint-Remy","slug":"pouru saint remy","gps_lat":49.67660860000003,"gps_lng":5.0883587},{"id":2723,"department_code":"08","insee_code":"08344","zip_code":"08290","name":"Prez","slug":"prez","gps_lat":49.80451937500003,"gps_lng":4.36370598214286},{"id":2724,"department_code":"08","insee_code":"08346","zip_code":"08000","name":"Prix-lès-Mézières","slug":"prix les mezieres","gps_lat":49.74868364864864,"gps_lng":4.6854463513513505},{"id":2725,"department_code":"08","insee_code":"08347","zip_code":"08370","name":"Puilly-et-Charbeaux","slug":"puilly et charbeaux","gps_lat":49.63622439999999,"gps_lng":5.27170555},{"id":2726,"department_code":"08","insee_code":"08348","zip_code":"08270","name":"Puiseux","slug":"puiseux","gps_lat":49.59513934065932,"gps_lng":4.5358643956044},{"id":2727,"department_code":"08","insee_code":"08349","zip_code":"08110","name":"Pure","slug":"pure","gps_lat":49.68194469135803,"gps_lng":5.17586012345679},{"id":3089,"department_code":"09","insee_code":"09224","zip_code":"09130","name":"Pailhès","slug":"pailhes","gps_lat":43.10578827586207,"gps_lng":1.45055246305419},{"id":3090,"department_code":"09","insee_code":"09225","zip_code":"09100","name":"Pamiers","slug":"pamiers","gps_lat":43.1206938208955,"gps_lng":1.59684050746269},{"id":3091,"department_code":"09","insee_code":"09226","zip_code":"09310","name":"Pech","slug":"pech","gps_lat":42.76951977777778,"gps_lng":1.68966666666667},{"id":3092,"department_code":"09","insee_code":"09227","zip_code":"09300","name":"Péreille","slug":"pereille","gps_lat":42.927925625,"gps_lng":1.806959375},{"id":3093,"department_code":"09","insee_code":"09228","zip_code":"09110","name":"Perles-et-Castelet","slug":"perles et castelet","gps_lat":42.72294046875001,"gps_lng":1.7737165625},{"id":3097,"department_code":"09","insee_code":"09232","zip_code":"09110","name":"Prades","slug":"prades","gps_lat":42.79300714285714,"gps_lng":1.86268698412698},{"id":3098,"department_code":"09","insee_code":"09233","zip_code":"09600","name":"Pradettes","slug":"pradettes","gps_lat":42.99151350000001,"gps_lng":1.8221735},{"id":3099,"department_code":"09","insee_code":"09234","zip_code":"09000","name":"Pradières","slug":"pradieres","gps_lat":42.96200786885244,"gps_lng":1.65917245901639},{"id":3100,"department_code":"09","insee_code":"09235","zip_code":"09160","name":"Prat-Bonrepaux","slug":"prat bonrepaux","gps_lat":43.03490812499997,"gps_lng":1.0284905625},{"id":3101,"department_code":"09","insee_code":"09236","zip_code":"09000","name":"Prayols","slug":"prayols","gps_lat":42.92323675000001,"gps_lng":1.6115335},{"id":3467,"department_code":"10","insee_code":"10276","zip_code":"10160","name":"Paisy-Cosdon","slug":"paisy cosdon","gps_lat":48.22278378048779,"gps_lng":3.70054914634146},{"id":3468,"department_code":"10","insee_code":"10278","zip_code":"10210","name":"Pargues","slug":"pargues","gps_lat":48.01582832116788,"gps_lng":4.20226116788321},{"id":3469,"department_code":"10","insee_code":"10279","zip_code":"10330","name":"Pars-lès-Chavanges","slug":"pars les chavanges","gps_lat":48.52070396551723,"gps_lng":4.50275965517241},{"id":3470,"department_code":"10","insee_code":"10280","zip_code":"10100","name":"Pars-lès-Romilly","slug":"pars les romilly","gps_lat":48.48881574257426,"gps_lng":3.72241485148515},{"id":3472,"department_code":"10","insee_code":"10282","zip_code":"10600","name":"Payns","slug":"payns","gps_lat":48.37887068376067,"gps_lng":3.96820427350427},{"id":3473,"department_code":"10","insee_code":"10283","zip_code":"10500","name":"Pel-et-Der","slug":"pel et der","gps_lat":48.39211038095238,"gps_lng":4.41441076190476},{"id":3474,"department_code":"10","insee_code":"10284","zip_code":"10400","name":"Périgny-la-Rose","slug":"perigny la rose","gps_lat":48.54496228070172,"gps_lng":3.62787035087719},{"id":3475,"department_code":"10","insee_code":"10285","zip_code":"10500","name":"Perthes-lès-Brienne","slug":"perthes les brienne","gps_lat":48.43354400000001,"gps_lng":4.54154733333333},{"id":3476,"department_code":"10","insee_code":"10286","zip_code":"10500","name":"Petit-Mesnil","slug":"petit mesnil","gps_lat":48.34015672619046,"gps_lng":4.62899285714286},{"id":3477,"department_code":"10","insee_code":"10287","zip_code":"10220","name":"Piney","slug":"piney","gps_lat":48.32435164810694,"gps_lng":4.37917102449889},{"id":3478,"department_code":"10","insee_code":"10288","zip_code":"10250","name":"Plaines-Saint-Lange","slug":"plaines saint lange","gps_lat":47.99586643564356,"gps_lng":4.48091386138614},{"id":3479,"department_code":"10","insee_code":"10289","zip_code":"10380","name":"Plancy-l'Abbaye","slug":"plancy l abbaye","gps_lat":48.57579479381444,"gps_lng":3.96775350515464},{"id":3480,"department_code":"10","insee_code":"10290","zip_code":"10160","name":"Planty","slug":"planty","gps_lat":48.270692345679,"gps_lng":3.65234901234568},{"id":3481,"department_code":"10","insee_code":"10291","zip_code":"10400","name":"Plessis-Barbuise","slug":"plessis barbuise","gps_lat":48.56904689189188,"gps_lng":3.58017094594595},{"id":3482,"department_code":"10","insee_code":"10293","zip_code":"10700","name":"Poivres","slug":"poivres","gps_lat":48.68051109677418,"gps_lng":4.27492606451613},{"id":3483,"department_code":"10","insee_code":"10294","zip_code":"10110","name":"Poligny","slug":"poligny","gps_lat":48.17577072463769,"gps_lng":4.34681956521739},{"id":3484,"department_code":"10","insee_code":"10295","zip_code":"10110","name":"Polisot","slug":"polisot","gps_lat":48.07387278350515,"gps_lng":4.35605257731959},{"id":3485,"department_code":"10","insee_code":"10296","zip_code":"10110","name":"Polisy","slug":"polisy","gps_lat":48.05958654929579,"gps_lng":4.37311161971831},{"id":3486,"department_code":"10","insee_code":"10297","zip_code":"10150","name":"Pont-Sainte-Marie","slug":"pont sainte marie","gps_lat":48.31824466666669,"gps_lng":4.09465577777778},{"id":3487,"department_code":"10","insee_code":"10298","zip_code":"10400","name":"Pont-sur-Seine","slug":"pont sur seine","gps_lat":48.51903255033555,"gps_lng":3.60266416107383},{"id":3488,"department_code":"10","insee_code":"10299","zip_code":"10700","name":"Pouan-les-Vallées","slug":"pouan les vallees","gps_lat":48.53789939849622,"gps_lng":4.06644052631579},{"id":3489,"department_code":"10","insee_code":"10300","zip_code":"10240","name":"Pougy","slug":"pougy","gps_lat":48.43855363636364,"gps_lng":4.35337772727273},{"id":3490,"department_code":"10","insee_code":"10301","zip_code":"10290","name":"Pouy-sur-Vannes","slug":"pouy sur vannes","gps_lat":48.29619540229886,"gps_lng":3.59687735632184},{"id":3491,"department_code":"10","insee_code":"10302","zip_code":"10210","name":"Praslin","slug":"praslin","gps_lat":48.0451701869159,"gps_lng":4.20764261682243},{"id":3492,"department_code":"10","insee_code":"10303","zip_code":"10500","name":"Précy-Notre-Dame","slug":"precy notre dame","gps_lat":48.40399860759494,"gps_lng":4.4376170886076},{"id":3493,"department_code":"10","insee_code":"10304","zip_code":"10500","name":"Précy-Saint-Martin","slug":"precy saint martin","gps_lat":48.41333467391306,"gps_lng":4.45858913043478},{"id":3494,"department_code":"10","insee_code":"10305","zip_code":"10170","name":"Prémierfait","slug":"premierfait","gps_lat":48.5054231395349,"gps_lng":4.0251811627907},{"id":3495,"department_code":"10","insee_code":"10306","zip_code":"10200","name":"Proverville","slug":"proverville","gps_lat":48.23218430379746,"gps_lng":4.67512455696203},{"id":3496,"department_code":"10","insee_code":"10307","zip_code":"10190","name":"Prugny","slug":"prugny","gps_lat":48.24774350515462,"gps_lng":3.94006185567011},{"id":3497,"department_code":"10","insee_code":"10308","zip_code":"10350","name":"Prunay-Belleville","slug":"prunay belleville","gps_lat":48.36738560000001,"gps_lng":3.7815804},{"id":3498,"department_code":"10","insee_code":"10309","zip_code":"10210","name":"Prusy","slug":"prusy","gps_lat":47.973400625,"gps_lng":4.049884125},{"id":3499,"department_code":"10","insee_code":"10310","zip_code":"10140","name":"Puits-et-Nuisement","slug":"puits et nuisement","gps_lat":48.21496018348622,"gps_lng":4.51205165137615},{"id":3891,"department_code":"11","insee_code":"11266","zip_code":"11210","name":"Port-la-Nouvelle","slug":"port la nouvelle","gps_lat":43.02562846774194,"gps_lng":3.03927548387097},{"id":3895,"department_code":"11","insee_code":"11270","zip_code":"11350","name":"Padern","slug":"padern","gps_lat":42.87308507042251,"gps_lng":2.6633590140845103},{"id":3896,"department_code":"11","insee_code":"11271","zip_code":"11330","name":"Palairac","slug":"palairac","gps_lat":42.95716267857142,"gps_lng":2.67278803571429},{"id":3897,"department_code":"11","insee_code":"11272","zip_code":"11570","name":"Palaja","slug":"palaja","gps_lat":43.16836155844158,"gps_lng":2.39007792207792},{"id":3898,"department_code":"11","insee_code":"11273","zip_code":"11200","name":"Paraza","slug":"paraza","gps_lat":43.26026417582417,"gps_lng":2.82142956043956},{"id":3899,"department_code":"11","insee_code":"11274","zip_code":"11300","name":"Pauligne","slug":"pauligne","gps_lat":43.07477551724137,"gps_lng":2.14868689655172},{"id":3900,"department_code":"11","insee_code":"11275","zip_code":"11410","name":"Payra-sur-l'Hers","slug":"payra sur l hers","gps_lat":43.25953899999999,"gps_lng":1.8749859473684198},{"id":3901,"department_code":"11","insee_code":"11276","zip_code":"11350","name":"Paziols","slug":"paziols","gps_lat":42.84994651685393,"gps_lng":2.7113523595505598},{"id":3902,"department_code":"11","insee_code":"11277","zip_code":"11420","name":"Pécharic-et-le-Py","slug":"pecharic et le py","gps_lat":43.193000375,"gps_lng":1.8261340000000001},{"id":3903,"department_code":"11","insee_code":"11278","zip_code":"11420","name":"Pech-Luna","slug":"pech luna","gps_lat":43.21078607843135,"gps_lng":1.8386268627451},{"id":3904,"department_code":"11","insee_code":"11279","zip_code":"11610","name":"Pennautier","slug":"pennautier","gps_lat":43.25087307692305,"gps_lng":2.31009572649573},{"id":3905,"department_code":"11","insee_code":"11280","zip_code":"11700","name":"Pépieux","slug":"pepieux","gps_lat":43.29784027027026,"gps_lng":2.68773774774775},{"id":3906,"department_code":"11","insee_code":"11281","zip_code":"11150","name":"Pexiora","slug":"pexiora","gps_lat":43.27045557692308,"gps_lng":2.03833625},{"id":3907,"department_code":"11","insee_code":"11282","zip_code":"11230","name":"Peyrefitte-du-Razès","slug":"peyrefitte du razes","gps_lat":43.06009982142859,"gps_lng":2.02336160714286},{"id":3908,"department_code":"11","insee_code":"11283","zip_code":"11420","name":"Peyrefitte-sur-l'Hers","slug":"peyrefitte sur l hers","gps_lat":43.24983222222222,"gps_lng":1.8136618518518501},{"id":3909,"department_code":"11","insee_code":"11284","zip_code":"11400","name":"Peyrens","slug":"peyrens","gps_lat":43.36180175,"gps_lng":1.9610927500000002},{"id":3910,"department_code":"11","insee_code":"11285","zip_code":"11440","name":"Peyriac-de-Mer","slug":"peyriac de mer","gps_lat":43.09460492063491,"gps_lng":2.94965619047619},{"id":3911,"department_code":"11","insee_code":"11286","zip_code":"11160","name":"Peyriac-Minervois","slug":"peyriac minervois","gps_lat":43.29766344155845,"gps_lng":2.57588512987013},{"id":3912,"department_code":"11","insee_code":"11287","zip_code":"11190","name":"Peyrolles","slug":"peyrolles","gps_lat":42.9593422826087,"gps_lng":2.34089402173913},{"id":3913,"department_code":"11","insee_code":"11288","zip_code":"11170","name":"Pezens","slug":"pezens","gps_lat":43.25607688888889,"gps_lng":2.24688481481482},{"id":3914,"department_code":"11","insee_code":"11289","zip_code":"11300","name":"Pieusse","slug":"pieusse","gps_lat":43.08013150943395,"gps_lng":2.25780858490566},{"id":3915,"department_code":"11","insee_code":"11290","zip_code":"11420","name":"Plaigne","slug":"plaigne","gps_lat":43.16873834532375,"gps_lng":1.80661021582734},{"id":3916,"department_code":"11","insee_code":"11291","zip_code":"11270","name":"Plavilla","slug":"plavilla","gps_lat":43.13747701298701,"gps_lng":1.9044370129870098},{"id":3918,"department_code":"11","insee_code":"11293","zip_code":"11250","name":"Pomas","slug":"pomas","gps_lat":43.10730366071429,"gps_lng":2.27993473214286},{"id":3919,"department_code":"11","insee_code":"11294","zip_code":"11300","name":"Pomy","slug":"pomy","gps_lat":43.0593403030303,"gps_lng":2.05940797979798},{"id":3920,"department_code":"11","insee_code":"11295","zip_code":"11490","name":"Portel-des-Corbières","slug":"portel des corbieres","gps_lat":43.0404598969072,"gps_lng":2.9223084536082498},{"id":3921,"department_code":"11","insee_code":"11296","zip_code":"11120","name":"Pouzols-Minervois","slug":"pouzols minervois","gps_lat":43.28136782051281,"gps_lng":2.82126},{"id":3922,"department_code":"11","insee_code":"11297","zip_code":"11380","name":"Pradelles-Cabardès","slug":"pradelles cabardes","gps_lat":43.41625199999999,"gps_lng":2.43403193103448},{"id":3923,"department_code":"11","insee_code":"11298","zip_code":"11220","name":"Pradelles-en-Val","slug":"pradelles en val","gps_lat":43.13420477272727,"gps_lng":2.51070545454545},{"id":3924,"department_code":"11","insee_code":"11299","zip_code":"11250","name":"Preixan","slug":"preixan","gps_lat":43.14246362637364,"gps_lng":2.27594692307692},{"id":3925,"department_code":"11","insee_code":"11300","zip_code":"11400","name":"Puginier","slug":"puginier","gps_lat":43.38094228260869,"gps_lng":1.9294772826086999},{"id":3926,"department_code":"11","insee_code":"11301","zip_code":"11700","name":"Puichéric","slug":"puicheric","gps_lat":43.22329435897439,"gps_lng":2.62280435897436},{"id":3927,"department_code":"11","insee_code":"11302","zip_code":"11140","name":"Puilaurens","slug":"puilaurens","gps_lat":42.81881114942528,"gps_lng":2.29448965517241},{"id":3928,"department_code":"11","insee_code":"11303","zip_code":"11230","name":"Puivert","slug":"puivert","gps_lat":42.91346631970259,"gps_lng":2.06650996282528},{"id":4232,"department_code":"12","insee_code":"12177","zip_code":"12310","name":"Palmas d'Aveyron","slug":"palmas d aveyron","gps_lat":44.394436,"gps_lng":2.840525},{"id":4233,"department_code":"12","insee_code":"12177","zip_code":"12340","name":"Palmas d'Aveyron","slug":"palmas d aveyron","gps_lat":44.394436,"gps_lng":2.840525},{"id":4234,"department_code":"12","insee_code":"12178","zip_code":"12520","name":"Paulhe","slug":"paulhe","gps_lat":44.14834949367088,"gps_lng":3.11411721518987},{"id":4235,"department_code":"12","insee_code":"12179","zip_code":"12360","name":"Peux-et-Couffouleux","slug":"peux et couffouleux","gps_lat":43.7604544047619,"gps_lng":2.88213958333333},{"id":4236,"department_code":"12","insee_code":"12180","zip_code":"12720","name":"Peyreleau","slug":"peyreleau","gps_lat":44.17652283422456,"gps_lng":3.21093823529412},{"id":4237,"department_code":"12","insee_code":"12181","zip_code":"12220","name":"Peyrusse-le-Roc","slug":"peyrusse le roc","gps_lat":44.50611442857142,"gps_lng":2.13631523809524},{"id":4238,"department_code":"12","insee_code":"12182","zip_code":"12130","name":"Pierrefiche","slug":"pierrefiche","gps_lat":44.43346403508772,"gps_lng":2.92235070175438},{"id":4239,"department_code":"12","insee_code":"12183","zip_code":"12550","name":"Plaisance","slug":"plaisance","gps_lat":43.93120697368424,"gps_lng":2.5590584868421002},{"id":4240,"department_code":"12","insee_code":"12184","zip_code":"12130","name":"Pomayrols","slug":"pomayrols","gps_lat":44.48601875675676,"gps_lng":3.05538864864865},{"id":4241,"department_code":"12","insee_code":"12185","zip_code":"12290","name":"Pont-de-Salars","slug":"pont de salars","gps_lat":44.27607557894738,"gps_lng":2.71163778947368},{"id":4242,"department_code":"12","insee_code":"12186","zip_code":"12380","name":"Pousthomy","slug":"pousthomy","gps_lat":43.84961542105263,"gps_lng":2.59750189473684},{"id":4243,"department_code":"12","insee_code":"12187","zip_code":"12470","name":"Prades-d'Aubrac","slug":"prades d aubrac","gps_lat":44.53878894056849,"gps_lng":2.96669286821705},{"id":4244,"department_code":"12","insee_code":"12188","zip_code":"12290","name":"Prades-Salars","slug":"prades salars","gps_lat":44.24930910156254,"gps_lng":2.790024765625},{"id":4245,"department_code":"12","insee_code":"12189","zip_code":"12240","name":"Pradinas","slug":"pradinas","gps_lat":44.24620099706746,"gps_lng":2.26982832844575},{"id":4246,"department_code":"12","insee_code":"12190","zip_code":"12350","name":"Prévinquières","slug":"previnquieres","gps_lat":44.364220921659,"gps_lng":2.24922944700461},{"id":4247,"department_code":"12","insee_code":"12191","zip_code":"12350","name":"Privezac","slug":"privezac","gps_lat":44.40753819209041,"gps_lng":2.2000718079096},{"id":4249,"department_code":"12","insee_code":"12193","zip_code":"12320","name":"Pruines","slug":"pruines","gps_lat":44.53325578616354,"gps_lng":2.4855758490566},{"id":4449,"department_code":"13","insee_code":"13068","zip_code":"13520","name":"Paradou","slug":"paradou","gps_lat":43.70735315068493,"gps_lng":4.78140767123288},{"id":4450,"department_code":"13","insee_code":"13069","zip_code":"13330","name":"Pélissanne","slug":"pelissanne","gps_lat":43.63647572413794,"gps_lng":5.15863172413793},{"id":4453,"department_code":"13","insee_code":"13072","zip_code":"13790","name":"Peynier","slug":"peynier","gps_lat":43.44929015873016,"gps_lng":5.62908666666667},{"id":4454,"department_code":"13","insee_code":"13073","zip_code":"13124","name":"Peypin","slug":"peypin","gps_lat":43.38738371900826,"gps_lng":5.57312107438017},{"id":4455,"department_code":"13","insee_code":"13074","zip_code":"13860","name":"Peyrolles-en-Provence","slug":"peyrolles en provence","gps_lat":43.62286510638298,"gps_lng":5.58055503546099},{"id":4456,"department_code":"13","insee_code":"13075","zip_code":"13380","name":"Plan-de-Cuques","slug":"plan de cuques","gps_lat":43.36135047244097,"gps_lng":5.46665102362205},{"id":4457,"department_code":"13","insee_code":"13076","zip_code":"13750","name":"Plan-d'Orgon","slug":"plan d orgon","gps_lat":43.81273311111111,"gps_lng":5.00742955555555},{"id":4458,"department_code":"13","insee_code":"13077","zip_code":"13110","name":"Port-de-Bouc","slug":"port de bouc","gps_lat":43.41539908045977,"gps_lng":4.99049287356322},{"id":4459,"department_code":"13","insee_code":"13078","zip_code":"13230","name":"Port-Saint-Louis-du-Rhône","slug":"port saint louis du rhone","gps_lat":43.39666765306122,"gps_lng":4.84434010204082},{"id":4460,"department_code":"13","insee_code":"13079","zip_code":"13114","name":"Puyloubier","slug":"puyloubier","gps_lat":43.52056142857143,"gps_lng":5.67658742857143},{"id":4772,"department_code":"14","insee_code":"14355","zip_code":"14480","name":"Ponts sur Seulles","slug":"ponts sur seulles","gps_lat":49.28595157575757,"gps_lng":-0.51593927272727},{"id":4859,"department_code":"14","insee_code":"14491","zip_code":"14310","name":"Parfouru-sur-Odon","slug":"parfouru sur odon","gps_lat":49.08559909090911,"gps_lng":-0.6084220454545499},{"id":4860,"department_code":"14","insee_code":"14492","zip_code":"14600","name":"Pennedepie","slug":"pennedepie","gps_lat":49.39777207999999,"gps_lng":0.16124232},{"id":4861,"department_code":"14","insee_code":"14494","zip_code":"14160","name":"Périers-en-Auge","slug":"periers en auge","gps_lat":49.26456499999998,"gps_lng":-0.09140718749999999},{"id":4862,"department_code":"14","insee_code":"14495","zip_code":"14112","name":"Périers-sur-le-Dan","slug":"periers sur le dan","gps_lat":49.25506032258065,"gps_lng":-0.34062967741935},{"id":4863,"department_code":"14","insee_code":"14496","zip_code":"14770","name":"Périgny","slug":"perigny","gps_lat":48.91780138888888,"gps_lng":-0.60401486111111},{"id":4864,"department_code":"14","insee_code":"14497","zip_code":"14170","name":"Perrières","slug":"perrieres","gps_lat":48.9595976923077,"gps_lng":-0.12713576923076997},{"id":4865,"department_code":"14","insee_code":"14498","zip_code":"14700","name":"Pertheville-Ners","slug":"pertheville ners","gps_lat":48.87353781609196,"gps_lng":-0.11727942528736002},{"id":4866,"department_code":"14","insee_code":"14499","zip_code":"14390","name":"Petiville","slug":"petiville","gps_lat":49.24334090909091,"gps_lng":-0.16560963636364},{"id":4867,"department_code":"14","insee_code":"14500","zip_code":"14130","name":"Pierrefitte-en-Auge","slug":"pierrefitte en auge","gps_lat":49.25496607999999,"gps_lng":0.20354008},{"id":4868,"department_code":"14","insee_code":"14501","zip_code":"14690","name":"Pierrefitte-en-Cinglais","slug":"pierrefitte en cinglais","gps_lat":48.90280730158729,"gps_lng":-0.38966253968254005},{"id":4869,"department_code":"14","insee_code":"14502","zip_code":"14690","name":"Pierrepont","slug":"pierrepont","gps_lat":48.88440220930233,"gps_lng":-0.32218465116279005},{"id":4871,"department_code":"14","insee_code":"14505","zip_code":"14220","name":"Placy","slug":"placy","gps_lat":48.98176892307696,"gps_lng":-0.43493230769230995},{"id":4872,"department_code":"14","insee_code":"14506","zip_code":"14490","name":"Planquery","slug":"planquery","gps_lat":49.16139711764707,"gps_lng":-0.835445},{"id":4873,"department_code":"14","insee_code":"14509","zip_code":"14440","name":"Plumetot","slug":"plumetot","gps_lat":49.27700260869566,"gps_lng":-0.36233565217390995},{"id":4875,"department_code":"14","insee_code":"14511","zip_code":"14380","name":"Pont-Bellanger","slug":"pont bellanger","gps_lat":48.93651090909093,"gps_lng":-0.98332963636364},{"id":4876,"department_code":"14","insee_code":"14512","zip_code":"14110","name":"Pontécoulant","slug":"pontecoulant","gps_lat":48.88938635294117,"gps_lng":-0.5875850588235301},{"id":4877,"department_code":"14","insee_code":"14514","zip_code":"14130","name":"Pont-l'Évêque","slug":"pont l eveque","gps_lat":49.27931333333331,"gps_lng":0.18883709401709},{"id":4878,"department_code":"14","insee_code":"14515","zip_code":"14520","name":"Port-en-Bessin-Huppain","slug":"port en bessin huppain","gps_lat":49.34329999999999,"gps_lng":-0.76825519379845},{"id":4879,"department_code":"14","insee_code":"14516","zip_code":"14420","name":"Potigny","slug":"potigny","gps_lat":48.96910177777777,"gps_lng":-0.24048222222222004},{"id":4880,"department_code":"14","insee_code":"14519","zip_code":"14210","name":"Préaux-Bocage","slug":"preaux bocage","gps_lat":49.05240642857142,"gps_lng":-0.50921333333333},{"id":4882,"department_code":"14","insee_code":"14522","zip_code":"14140","name":"Prêtreville","slug":"pretreville","gps_lat":49.07375850267382,"gps_lng":0.24896828877005},{"id":4883,"department_code":"14","insee_code":"14524","zip_code":"14430","name":"Putot-en-Auge","slug":"putot en auge","gps_lat":49.21001609375001,"gps_lng":-0.06270593749999998},{"id":5054,"department_code":"14","insee_code":"14764","zip_code":"14690","name":"Pont-d'Ouilly","slug":"pont d ouilly","gps_lat":48.87588240663903,"gps_lng":-0.4162579253112},{"id":5189,"department_code":"15","insee_code":"15146","zip_code":"15800","name":"Pailherols","slug":"pailherols","gps_lat":44.95738092140918,"gps_lng":2.7033635501355002},{"id":5190,"department_code":"15","insee_code":"15147","zip_code":"15290","name":"Parlan","slug":"parlan","gps_lat":44.81940786982248,"gps_lng":2.17594798816568},{"id":5191,"department_code":"15","insee_code":"15148","zip_code":"15430","name":"Paulhac","slug":"paulhac","gps_lat":45.01779201005024,"gps_lng":2.91164331658292},{"id":5192,"department_code":"15","insee_code":"15149","zip_code":"15230","name":"Paulhenc","slug":"paulhenc","gps_lat":44.885459106383,"gps_lng":2.81178995744681},{"id":5193,"department_code":"15","insee_code":"15151","zip_code":"15170","name":"Peyrusse","slug":"peyrusse","gps_lat":45.21133557692306,"gps_lng":3.04210196581197},{"id":5194,"department_code":"15","insee_code":"15152","zip_code":"15230","name":"Pierrefort","slug":"pierrefort","gps_lat":44.92737936877078,"gps_lng":2.8329638538206},{"id":5195,"department_code":"15","insee_code":"15153","zip_code":"15700","name":"Pleaux","slug":"pleaux","gps_lat":45.14013828260872,"gps_lng":2.2513207934782598},{"id":5196,"department_code":"15","insee_code":"15154","zip_code":"15800","name":"Polminhac","slug":"polminhac","gps_lat":44.94962037974685,"gps_lng":2.57793718987342},{"id":5197,"department_code":"15","insee_code":"15155","zip_code":"15160","name":"Pradiers","slug":"pradiers","gps_lat":45.27549408163266,"gps_lng":2.92101673469388},{"id":5198,"department_code":"15","insee_code":"15156","zip_code":"15130","name":"Prunet","slug":"prunet","gps_lat":44.8202156077348,"gps_lng":2.47238580110497},{"id":5538,"department_code":"16","insee_code":"16253","zip_code":"16240","name":"Paizay-Naudouin-Embourie","slug":"paizay naudouin embourie","gps_lat":46.03160619718312,"gps_lng":0.00031615023474},{"id":5539,"department_code":"16","insee_code":"16254","zip_code":"16390","name":"Palluaud","slug":"palluaud","gps_lat":45.34947018018019,"gps_lng":0.24483810810811},{"id":5540,"department_code":"16","insee_code":"16255","zip_code":"16450","name":"Parzac","slug":"parzac","gps_lat":45.92510256410256,"gps_lng":0.42612324786325},{"id":5541,"department_code":"16","insee_code":"16256","zip_code":"16480","name":"Passirac","slug":"passirac","gps_lat":45.34603297468354,"gps_lng":-0.06361563291139005},{"id":5542,"department_code":"16","insee_code":"16258","zip_code":"16250","name":"Pérignac","slug":"perignac","gps_lat":45.46474981012658,"gps_lng":0.08297405063291},{"id":5544,"department_code":"16","insee_code":"16260","zip_code":"16390","name":"Pillac","slug":"pillac","gps_lat":45.32383853061224,"gps_lng":0.1806792244898},{"id":5546,"department_code":"16","insee_code":"16263","zip_code":"16250","name":"Plassac-Rouffiac","slug":"plassac rouffiac","gps_lat":45.52252397849461,"gps_lng":0.07395731182796},{"id":5547,"department_code":"16","insee_code":"16264","zip_code":"16490","name":"Pleuville","slug":"pleuville","gps_lat":46.09225554487182,"gps_lng":0.49266128205128},{"id":5548,"department_code":"16","insee_code":"16267","zip_code":"16190","name":"Poullignac","slug":"poullignac","gps_lat":45.3953512658228,"gps_lng":-0.010657341772150053},{"id":5549,"department_code":"16","insee_code":"16268","zip_code":"16700","name":"Poursac","slug":"poursac","gps_lat":45.96426499999999,"gps_lng":0.26453537313433},{"id":5550,"department_code":"16","insee_code":"16269","zip_code":"16110","name":"Pranzac","slug":"pranzac","gps_lat":45.67533641221377,"gps_lng":0.3447865648855},{"id":5551,"department_code":"16","insee_code":"16270","zip_code":"16150","name":"Pressignac","slug":"pressignac","gps_lat":45.81522953352769,"gps_lng":0.7401978425656},{"id":5552,"department_code":"16","insee_code":"16271","zip_code":"16400","name":"Puymoyen","slug":"puymoyen","gps_lat":45.61495012048192,"gps_lng":0.17166180722892},{"id":5553,"department_code":"16","insee_code":"16272","zip_code":"16230","name":"Puyréaux","slug":"puyreaux","gps_lat":45.86546929687501,"gps_lng":0.216697421875},{"id":5946,"department_code":"17","insee_code":"17271","zip_code":"17470","name":"Paillé","slug":"paille","gps_lat":45.98681111111111,"gps_lng":-0.38730296296295996},{"id":5947,"department_code":"17","insee_code":"17272","zip_code":"17700","name":"Péré","slug":"pere","gps_lat":46.08709067796608,"gps_lng":-0.81010779661017},{"id":5948,"department_code":"17","insee_code":"17273","zip_code":"17800","name":"Pérignac","slug":"perignac","gps_lat":45.63856692307692,"gps_lng":-0.46111403846154},{"id":5949,"department_code":"17","insee_code":"17274","zip_code":"17180","name":"Périgny","slug":"perigny","gps_lat":46.16004565217393,"gps_lng":-1.0893472826087},{"id":5950,"department_code":"17","insee_code":"17275","zip_code":"17810","name":"Pessines","slug":"pessines","gps_lat":45.72084663999999,"gps_lng":-0.70923248},{"id":5953,"department_code":"17","insee_code":"17278","zip_code":"17600","name":"Pisany","slug":"pisany","gps_lat":45.70319986486487,"gps_lng":-0.79012162162162},{"id":5954,"department_code":"17","insee_code":"17279","zip_code":"17240","name":"Plassac","slug":"plassac","gps_lat":45.44857999999999,"gps_lng":-0.58171815217391},{"id":5955,"department_code":"17","insee_code":"17280","zip_code":"17250","name":"Plassay","slug":"plassay","gps_lat":45.82408505882353,"gps_lng":-0.72882376470588},{"id":5956,"department_code":"17","insee_code":"17281","zip_code":"17210","name":"Polignac","slug":"polignac","gps_lat":45.28108634408601,"gps_lng":-0.30117956989246997},{"id":5957,"department_code":"17","insee_code":"17282","zip_code":"17130","name":"Pommiers-Moulons","slug":"pommiers moulons","gps_lat":45.32667277777777,"gps_lng":-0.34241006944443997},{"id":5958,"department_code":"17","insee_code":"17283","zip_code":"17800","name":"Pons","slug":"pons","gps_lat":45.57650004807693,"gps_lng":-0.56030975961538},{"id":5959,"department_code":"17","insee_code":"17284","zip_code":"17250","name":"Pont-l'Abbé-d'Arnoult","slug":"pont l abbe d arnoult","gps_lat":45.82514821428571,"gps_lng":-0.86848771428571},{"id":5960,"department_code":"17","insee_code":"17285","zip_code":"17350","name":"Port-d'Envaux","slug":"port d envaux","gps_lat":45.81506041322315,"gps_lng":-0.67097950413223},{"id":5962,"department_code":"17","insee_code":"17287","zip_code":"17210","name":"Pouillac","slug":"pouillac","gps_lat":45.27136457831325,"gps_lng":-0.2625078313253},{"id":5963,"department_code":"17","insee_code":"17288","zip_code":"17400","name":"Poursay-Garnaud","slug":"poursay garnaud","gps_lat":45.94932183098593,"gps_lng":-0.45448690140845005},{"id":5964,"department_code":"17","insee_code":"17289","zip_code":"17460","name":"Préguillac","slug":"preguillac","gps_lat":45.66431209677419,"gps_lng":-0.63034467741935},{"id":5965,"department_code":"17","insee_code":"17290","zip_code":"17160","name":"Prignac","slug":"prignac","gps_lat":45.83166582677168,"gps_lng":-0.35023338582677},{"id":5966,"department_code":"17","insee_code":"17291","zip_code":"17138","name":"Puilboreau","slug":"puilboreau","gps_lat":46.18473262295083,"gps_lng":-1.11793819672131},{"id":5967,"department_code":"17","insee_code":"17292","zip_code":"17380","name":"Puy-du-Lac","slug":"puy du lac","gps_lat":45.9510347368421,"gps_lng":-0.75233189473684},{"id":5968,"department_code":"17","insee_code":"17293","zip_code":"17700","name":"Puyravault","slug":"puyravault","gps_lat":46.14113432203388,"gps_lng":-0.82691296610169},{"id":5969,"department_code":"17","insee_code":"17294","zip_code":"17380","name":"Puyrolland","slug":"puyrolland","gps_lat":46.03130185185185,"gps_lng":-0.65110148148148},{"id":6151,"department_code":"17","insee_code":"17484","zip_code":"17730","name":"Port-des-Barques","slug":"port des barques","gps_lat":45.95112583756345,"gps_lng":-1.09438035532995},{"id":6329,"department_code":"18","insee_code":"18176","zip_code":"18220","name":"Parassy","slug":"parassy","gps_lat":47.25029262295082,"gps_lng":2.54511368852459},{"id":6330,"department_code":"18","insee_code":"18177","zip_code":"18130","name":"Parnay","slug":"parnay","gps_lat":46.85198263565895,"gps_lng":2.56134751937985},{"id":6332,"department_code":"18","insee_code":"18179","zip_code":"18110","name":"Pigny","slug":"pigny","gps_lat":47.16399893333335,"gps_lng":2.44174226666667},{"id":6333,"department_code":"18","insee_code":"18180","zip_code":"18340","name":"Plaimpied-Givaudins","slug":"plaimpied givaudins","gps_lat":47.0151040131579,"gps_lng":2.4297390131579},{"id":6334,"department_code":"18","insee_code":"18181","zip_code":"18290","name":"Plou","slug":"plou","gps_lat":47.03702629834254,"gps_lng":2.15463806629834},{"id":6335,"department_code":"18","insee_code":"18182","zip_code":"18290","name":"Poisieux","slug":"poisieux","gps_lat":47.03123762886595,"gps_lng":2.07922154639175},{"id":6337,"department_code":"18","insee_code":"18184","zip_code":"18140","name":"Précy","slug":"precy","gps_lat":47.08819477611944,"gps_lng":2.92918156716418},{"id":6338,"department_code":"18","insee_code":"18185","zip_code":"18380","name":"Presly","slug":"presly","gps_lat":47.38468237499999,"gps_lng":2.3328533125},{"id":6339,"department_code":"18","insee_code":"18186","zip_code":"18120","name":"Preuilly","slug":"preuilly","gps_lat":47.09388664335663,"gps_lng":2.16367118881119},{"id":6340,"department_code":"18","insee_code":"18187","zip_code":"18370","name":"Préveranges","slug":"preveranges","gps_lat":46.45136511235955,"gps_lng":2.25027578651685},{"id":6341,"department_code":"18","insee_code":"18188","zip_code":"18400","name":"Primelles","slug":"primelles","gps_lat":46.91092122137405,"gps_lng":2.2023772519084},{"id":6601,"department_code":"19","insee_code":"19156","zip_code":"19190","name":"Palazinges","slug":"palazinges","gps_lat":45.16543793650796,"gps_lng":1.6900519047619},{"id":6602,"department_code":"19","insee_code":"19157","zip_code":"19160","name":"Palisse","slug":"palisse","gps_lat":45.42992815668205,"gps_lng":2.19881161290323},{"id":6603,"department_code":"19","insee_code":"19158","zip_code":"19150","name":"Pandrignes","slug":"pandrignes","gps_lat":45.22025807692306,"gps_lng":1.86156181318681},{"id":6604,"department_code":"19","insee_code":"19159","zip_code":"19300","name":"Péret-Bel-Air","slug":"peret bel air","gps_lat":45.47343344827586,"gps_lng":2.02742648275862},{"id":6605,"department_code":"19","insee_code":"19160","zip_code":"19170","name":"Pérols-sur-Vézère","slug":"perols sur vezere","gps_lat":45.57507927058825,"gps_lng":1.99844738823529},{"id":6606,"department_code":"19","insee_code":"19161","zip_code":"19310","name":"Perpezac-le-Blanc","slug":"perpezac le blanc","gps_lat":45.2119887719298,"gps_lng":1.32315426900585},{"id":6607,"department_code":"19","insee_code":"19162","zip_code":"19410","name":"Perpezac-le-Noir","slug":"perpezac le noir","gps_lat":45.33620156171285,"gps_lng":1.55445100755667},{"id":6609,"department_code":"19","insee_code":"19164","zip_code":"19290","name":"Peyrelevade","slug":"peyrelevade","gps_lat":45.70723861111109,"gps_lng":2.03180724537037},{"id":6610,"department_code":"19","insee_code":"19165","zip_code":"19260","name":"Peyrissac","slug":"peyrissac","gps_lat":45.50625663934427,"gps_lng":1.6925918852458999},{"id":6611,"department_code":"19","insee_code":"19166","zip_code":"19450","name":"Pierrefitte","slug":"pierrefitte","gps_lat":45.42614938461538,"gps_lng":1.64809487179487},{"id":6613,"department_code":"19","insee_code":"19168","zip_code":"19170","name":"Pradines","slug":"pradines","gps_lat":45.513101302521,"gps_lng":1.91208487394958},{"id":6614,"department_code":"19","insee_code":"19169","zip_code":"19120","name":"Puy-d'Arnac","slug":"puy d arnac","gps_lat":45.02427588235292,"gps_lng":1.7765925294117602},{"id":7195,"department_code":"21","insee_code":"21474","zip_code":"21250","name":"Pagny-la-Ville","slug":"pagny la ville","gps_lat":47.0574161,"gps_lng":5.1660579},{"id":7196,"department_code":"21","insee_code":"21475","zip_code":"21250","name":"Pagny-le-Château","slug":"pagny le chateau","gps_lat":47.04900303030301,"gps_lng":5.21180060606061},{"id":7197,"department_code":"21","insee_code":"21476","zip_code":"21360","name":"Painblanc","slug":"painblanc","gps_lat":47.14670034482759,"gps_lng":4.63030818965517},{"id":7198,"department_code":"21","insee_code":"21477","zip_code":"21540","name":"Panges","slug":"panges","gps_lat":47.37482752688169,"gps_lng":4.80205612903226},{"id":7199,"department_code":"21","insee_code":"21478","zip_code":"21370","name":"Pasques","slug":"pasques","gps_lat":47.38565079136688,"gps_lng":4.85075791366907},{"id":7200,"department_code":"21","insee_code":"21479","zip_code":"21440","name":"Pellerey","slug":"pellerey","gps_lat":47.50865913907284,"gps_lng":4.79783629139073},{"id":7201,"department_code":"21","insee_code":"21480","zip_code":"21420","name":"Pernand-Vergelesses","slug":"pernand vergelesses","gps_lat":47.07950637499998,"gps_lng":4.849490875},{"id":7202,"department_code":"21","insee_code":"21481","zip_code":"21160","name":"Perrigny-lès-Dijon","slug":"perrigny les dijon","gps_lat":47.25520491228069,"gps_lng":5.02091245614035},{"id":7203,"department_code":"21","insee_code":"21482","zip_code":"21270","name":"Perrigny-sur-l'Ognon","slug":"perrigny sur l ognon","gps_lat":47.3084,"gps_lng":5.46274395209581},{"id":7204,"department_code":"21","insee_code":"21483","zip_code":"21120","name":"Pichanges","slug":"pichanges","gps_lat":47.45402602040816,"gps_lng":5.15663224489796},{"id":7205,"department_code":"21","insee_code":"21484","zip_code":"21500","name":"Planay","slug":"planay","gps_lat":47.73855260000001,"gps_lng":4.3775224},{"id":7206,"department_code":"21","insee_code":"21485","zip_code":"21370","name":"Plombières-lès-Dijon","slug":"plombieres les dijon","gps_lat":47.33817622448981,"gps_lng":4.94855244897959},{"id":7207,"department_code":"21","insee_code":"21486","zip_code":"21110","name":"Pluvault","slug":"pluvault","gps_lat":47.20530724137932,"gps_lng":5.24544103448276},{"id":7208,"department_code":"21","insee_code":"21487","zip_code":"21110","name":"Pluvet","slug":"pluvet","gps_lat":47.19473790697675,"gps_lng":5.25412906976744},{"id":7209,"department_code":"21","insee_code":"21488","zip_code":"21330","name":"Poinçon-lès-Larrey","slug":"poincon les larrey","gps_lat":47.87540235294119,"gps_lng":4.45672745098039},{"id":7210,"department_code":"21","insee_code":"21489","zip_code":"21440","name":"Poiseul-la-Grange","slug":"poiseul la grange","gps_lat":47.57449979020979,"gps_lng":4.7948857342657405},{"id":7211,"department_code":"21","insee_code":"21490","zip_code":"21450","name":"Poiseul-la-Ville-et-Laperrière","slug":"poiseul la ville et laperriere","gps_lat":47.57624590163935,"gps_lng":4.66878614754098},{"id":7212,"department_code":"21","insee_code":"21491","zip_code":"21120","name":"Poiseul-lès-Saulx","slug":"poiseul les saulx","gps_lat":47.5787198148148,"gps_lng":4.98286768518519},{"id":7213,"department_code":"21","insee_code":"21492","zip_code":"21630","name":"Pommard","slug":"pommard","gps_lat":47.01456378378381,"gps_lng":4.79323351351351},{"id":7214,"department_code":"21","insee_code":"21493","zip_code":"21130","name":"Poncey-lès-Athée","slug":"poncey les athee","gps_lat":47.23519674418604,"gps_lng":5.38456965116279},{"id":7215,"department_code":"21","insee_code":"21494","zip_code":"21440","name":"Poncey-sur-l'Ignon","slug":"poncey sur l ignon","gps_lat":47.49192415841585,"gps_lng":4.75539613861386},{"id":7216,"department_code":"21","insee_code":"21495","zip_code":"21130","name":"Pont","slug":"pont","gps_lat":47.17876363636364,"gps_lng":5.32410662337662},{"id":7217,"department_code":"21","insee_code":"21496","zip_code":"21270","name":"Pontailler-sur-Saône","slug":"pontailler sur saone","gps_lat":47.30261307692308,"gps_lng":5.41603778846154},{"id":7218,"department_code":"21","insee_code":"21497","zip_code":"21140","name":"Pont-et-Massène","slug":"pont et massene","gps_lat":47.46860065573771,"gps_lng":4.3561787704918},{"id":7219,"department_code":"21","insee_code":"21498","zip_code":"21350","name":"Posanges","slug":"posanges","gps_lat":47.42004976744187,"gps_lng":4.52456930232558},{"id":7220,"department_code":"21","insee_code":"21499","zip_code":"21400","name":"Pothières","slug":"pothieres","gps_lat":47.92054266990292,"gps_lng":4.49571111650485},{"id":7221,"department_code":"21","insee_code":"21500","zip_code":"21150","name":"Pouillenay","slug":"pouillenay","gps_lat":47.5015556329114,"gps_lng":4.46337993670886},{"id":7222,"department_code":"21","insee_code":"21501","zip_code":"21320","name":"Pouilly-en-Auxois","slug":"pouilly en auxois","gps_lat":47.26303426829267,"gps_lng":4.56166597560976},{"id":7223,"department_code":"21","insee_code":"21502","zip_code":"21250","name":"Pouilly-sur-Saône","slug":"pouilly sur saone","gps_lat":47.00999725274726,"gps_lng":5.12032021978022},{"id":7224,"department_code":"21","insee_code":"21503","zip_code":"21610","name":"Pouilly-sur-Vingeanne","slug":"pouilly sur vingeanne","gps_lat":47.54063946308725,"gps_lng":5.44681040268456},{"id":7225,"department_code":"21","insee_code":"21504","zip_code":"21410","name":"Prâlon","slug":"pralon","gps_lat":47.30935372093023,"gps_lng":4.77776697674419},{"id":7226,"department_code":"21","insee_code":"21505","zip_code":"21390","name":"Précy-sous-Thil","slug":"precy sous thil","gps_lat":47.39862438271604,"gps_lng":4.3146448148148195},{"id":7227,"department_code":"21","insee_code":"21506","zip_code":"21700","name":"Premeaux-Prissey","slug":"premeaux prissey","gps_lat":47.1035198989899,"gps_lng":4.94280141414141},{"id":7228,"department_code":"21","insee_code":"21507","zip_code":"21110","name":"Premières","slug":"premieres","gps_lat":47.23734481481482,"gps_lng":5.28949611111111},{"id":7229,"department_code":"21","insee_code":"21508","zip_code":"21370","name":"Prenois","slug":"prenois","gps_lat":47.37439495327102,"gps_lng":4.90754056074767},{"id":7230,"department_code":"21","insee_code":"21510","zip_code":"21400","name":"Prusly-sur-Ource","slug":"prusly sur ource","gps_lat":47.88131974137931,"gps_lng":4.6432824137931},{"id":7231,"department_code":"21","insee_code":"21511","zip_code":"21400","name":"Puits","slug":"puits","gps_lat":47.72809517985613,"gps_lng":4.47040618705036},{"id":7232,"department_code":"21","insee_code":"21512","zip_code":"21190","name":"Puligny-Montrachet","slug":"puligny montrachet","gps_lat":46.94836813333335,"gps_lng":4.75637266666667},{"id":7577,"department_code":"22","insee_code":"22161","zip_code":"22200","name":"Pabu","slug":"pabu","gps_lat":48.58638602649007,"gps_lng":-3.1400652980132397},{"id":7578,"department_code":"22","insee_code":"22162","zip_code":"22500","name":"Paimpol","slug":"paimpol","gps_lat":48.77388251207734,"gps_lng":-3.04532871980676},{"id":7579,"department_code":"22","insee_code":"22163","zip_code":"22340","name":"Paule","slug":"paule","gps_lat":48.22651084175086,"gps_lng":-3.4681651178451203},{"id":7580,"department_code":"22","insee_code":"22164","zip_code":"22540","name":"Pédernec","slug":"pedernec","gps_lat":48.58696960113961,"gps_lng":-3.27468245014245},{"id":7581,"department_code":"22","insee_code":"22165","zip_code":"22510","name":"Penguily","slug":"penguily","gps_lat":48.37394040000002,"gps_lng":-2.4973648},{"id":7582,"department_code":"22","insee_code":"22166","zip_code":"22710","name":"Penvénan","slug":"penvenan","gps_lat":48.83368629496407,"gps_lng":-3.29807730215828},{"id":7583,"department_code":"22","insee_code":"22168","zip_code":"22700","name":"Perros-Guirec","slug":"perros guirec","gps_lat":48.83659456032719,"gps_lng":-3.46822118609407},{"id":7584,"department_code":"22","insee_code":"22169","zip_code":"22480","name":"Peumerit-Quintin","slug":"peumerit quintin","gps_lat":48.36680153846154,"gps_lng":-3.2795576674938},{"id":7585,"department_code":"22","insee_code":"22170","zip_code":"22800","name":"Plaine-Haute","slug":"plaine haute","gps_lat":48.44416910714286,"gps_lng":-2.85849174107143},{"id":7586,"department_code":"22","insee_code":"22171","zip_code":"22940","name":"Plaintel","slug":"plaintel","gps_lat":48.4042018312757,"gps_lng":-2.80999549382716},{"id":7587,"department_code":"22","insee_code":"22172","zip_code":"22130","name":"Plancoët","slug":"plancoet","gps_lat":48.51637997050145,"gps_lng":-2.21614548672566},{"id":7588,"department_code":"22","insee_code":"22173","zip_code":"22400","name":"Planguenoual","slug":"planguenoual","gps_lat":48.5467042857143,"gps_lng":-2.5820600000000002},{"id":7589,"department_code":"22","insee_code":"22174","zip_code":"22550","name":"Pléboulle","slug":"pleboulle","gps_lat":48.59288182572617,"gps_lng":-2.3311226556016598},{"id":7590,"department_code":"22","insee_code":"22175","zip_code":"22270","name":"Plédéliac","slug":"pledeliac","gps_lat":48.46526117794487,"gps_lng":-2.36028766917293},{"id":7591,"department_code":"22","insee_code":"22176","zip_code":"22960","name":"Plédran","slug":"pledran","gps_lat":48.44447151670953,"gps_lng":-2.73798678663239},{"id":7592,"department_code":"22","insee_code":"22177","zip_code":"22290","name":"Pléguien","slug":"pleguien","gps_lat":48.63732906077348,"gps_lng":-2.95340790055249},{"id":7593,"department_code":"22","insee_code":"22178","zip_code":"22290","name":"Pléhédel","slug":"plehedel","gps_lat":48.69105524271848,"gps_lng":-3.01293451456311},{"id":7595,"department_code":"22","insee_code":"22180","zip_code":"22980","name":"Plélan-le-Petit","slug":"plelan le petit","gps_lat":48.42361120879121,"gps_lng":-2.21978379120879},{"id":7596,"department_code":"22","insee_code":"22181","zip_code":"22570","name":"Plélauff","slug":"plelauff","gps_lat":48.19180925925924,"gps_lng":-3.2139749158249202},{"id":7597,"department_code":"22","insee_code":"22182","zip_code":"22170","name":"Plélo","slug":"plelo","gps_lat":48.55508417910448,"gps_lng":-2.93280852878465},{"id":7598,"department_code":"22","insee_code":"22183","zip_code":"22210","name":"Plémet","slug":"plemet","gps_lat":48.17295631455401,"gps_lng":-2.59374363849765},{"id":7599,"department_code":"22","insee_code":"22184","zip_code":"22150","name":"Plémy","slug":"plemy","gps_lat":48.34050996753246,"gps_lng":-2.6745481493506498},{"id":7600,"department_code":"22","insee_code":"22185","zip_code":"22640","name":"Plénée-Jugon","slug":"plenee jugon","gps_lat":48.3581589955357,"gps_lng":-2.40689935267857},{"id":7601,"department_code":"22","insee_code":"22186","zip_code":"22370","name":"Pléneuf-Val-André","slug":"pleneuf val andre","gps_lat":48.59843801801804,"gps_lng":-2.55457351351351},{"id":7602,"department_code":"22","insee_code":"22187","zip_code":"22190","name":"Plérin","slug":"plerin","gps_lat":48.5414887676056,"gps_lng":-2.78246992957746},{"id":7603,"department_code":"22","insee_code":"22188","zip_code":"22170","name":"Plerneuf","slug":"plerneuf","gps_lat":48.50444365384615,"gps_lng":-2.87929038461538},{"id":7604,"department_code":"22","insee_code":"22189","zip_code":"22720","name":"Plésidy","slug":"plesidy","gps_lat":48.4401392039801,"gps_lng":-3.13004335820896},{"id":7605,"department_code":"22","insee_code":"22190","zip_code":"22490","name":"Pleslin-Trigavou","slug":"pleslin trigavou","gps_lat":48.52312456043958,"gps_lng":-2.07085571428571},{"id":7606,"department_code":"22","insee_code":"22193","zip_code":"22640","name":"Plestan","slug":"plestan","gps_lat":48.41571689956328,"gps_lng":-2.42639637554585},{"id":7607,"department_code":"22","insee_code":"22194","zip_code":"22310","name":"Plestin-les-Grèves","slug":"plestin les greves","gps_lat":48.64811719999999,"gps_lng":-3.62135112},{"id":7608,"department_code":"22","insee_code":"22195","zip_code":"22610","name":"Pleubian","slug":"pleubian","gps_lat":48.85638005882356,"gps_lng":-3.11235097058824},{"id":7609,"department_code":"22","insee_code":"22196","zip_code":"22740","name":"Pleudaniel","slug":"pleudaniel","gps_lat":48.76221817142856,"gps_lng":-3.15287794285714},{"id":7610,"department_code":"22","insee_code":"22197","zip_code":"22690","name":"Pleudihen-sur-Rance","slug":"pleudihen sur rance","gps_lat":48.51642275747507,"gps_lng":-1.94943362126246},{"id":7611,"department_code":"22","insee_code":"22198","zip_code":"22560","name":"Pleumeur-Bodou","slug":"pleumeur bodou","gps_lat":48.79805375415284,"gps_lng":-3.54615232558139},{"id":7612,"department_code":"22","insee_code":"22199","zip_code":"22740","name":"Pleumeur-Gautier","slug":"pleumeur gautier","gps_lat":48.80070084677418,"gps_lng":-3.14805322580645},{"id":7613,"department_code":"22","insee_code":"22200","zip_code":"22130","name":"Pléven","slug":"pleven","gps_lat":48.4901366197183,"gps_lng":-2.3199138028168997},{"id":7614,"department_code":"22","insee_code":"22201","zip_code":"22240","name":"Plévenon","slug":"plevenon","gps_lat":48.66443316793888,"gps_lng":-2.31897255725191},{"id":7615,"department_code":"22","insee_code":"22202","zip_code":"22340","name":"Plévin","slug":"plevin","gps_lat":48.22738119402985,"gps_lng":-3.51566246268657},{"id":7616,"department_code":"22","insee_code":"22203","zip_code":"22150","name":"Plœuc-L'Hermitage","slug":"ploeuc l hermitage","gps_lat":48.33975243303571,"gps_lng":-2.80992973214286},{"id":7617,"department_code":"22","insee_code":"22204","zip_code":"22260","name":"Ploëzal","slug":"ploezal","gps_lat":48.71887493617024,"gps_lng":-3.18268468085106},{"id":7618,"department_code":"22","insee_code":"22205","zip_code":"22130","name":"Plorec-sur-Arguenon","slug":"plorec sur arguenon","gps_lat":48.46523341991347,"gps_lng":-2.3039525974026},{"id":7619,"department_code":"22","insee_code":"22206","zip_code":"22170","name":"Plouagat","slug":"plouagat","gps_lat":48.5381611830357,"gps_lng":-2.98240772321429},{"id":7620,"department_code":"22","insee_code":"22207","zip_code":"22420","name":"Plouaret","slug":"plouaret","gps_lat":48.6147237792642,"gps_lng":-3.48638468227425},{"id":7621,"department_code":"22","insee_code":"22208","zip_code":"22830","name":"Plouasne","slug":"plouasne","gps_lat":48.31261045627376,"gps_lng":-2.0165321292775698},{"id":7623,"department_code":"22","insee_code":"22210","zip_code":"22620","name":"Ploubazlanec","slug":"ploubazlanec","gps_lat":48.80746774390249,"gps_lng":-3.03146201219512},{"id":7624,"department_code":"22","insee_code":"22211","zip_code":"22300","name":"Ploubezre","slug":"ploubezre","gps_lat":48.6860597560976,"gps_lng":-3.4566397212543603},{"id":7625,"department_code":"22","insee_code":"22212","zip_code":"22260","name":"Plouëc-du-Trieux","slug":"plouec du trieux","gps_lat":48.67308832535887,"gps_lng":-3.19537909090909},{"id":7626,"department_code":"22","insee_code":"22213","zip_code":"22490","name":"Plouër-sur-Rance","slug":"plouer sur rance","gps_lat":48.52556858369098,"gps_lng":-2.00354180257511},{"id":7627,"department_code":"22","insee_code":"22214","zip_code":"22470","name":"Plouézec","slug":"plouezec","gps_lat":48.74869353932585,"gps_lng":-2.97051974719101},{"id":7628,"department_code":"22","insee_code":"22215","zip_code":"22440","name":"Ploufragan","slug":"ploufragan","gps_lat":48.4887625090909,"gps_lng":-2.80325167272727},{"id":7629,"department_code":"22","insee_code":"22216","zip_code":"22810","name":"Plougonver","slug":"plougonver","gps_lat":48.48693482456139,"gps_lng":-3.3732882748538},{"id":7630,"department_code":"22","insee_code":"22217","zip_code":"22780","name":"Plougras","slug":"plougras","gps_lat":48.5064015508021,"gps_lng":-3.55942518716578},{"id":7631,"department_code":"22","insee_code":"22218","zip_code":"22820","name":"Plougrescant","slug":"plougrescant","gps_lat":48.85379508658006,"gps_lng":-3.22370300865801},{"id":7632,"department_code":"22","insee_code":"22219","zip_code":"22150","name":"Plouguenast","slug":"plouguenast","gps_lat":48.27977547550432,"gps_lng":-2.71479654178674},{"id":7633,"department_code":"22","insee_code":"22220","zip_code":"22110","name":"Plouguernével","slug":"plouguernevel","gps_lat":48.23951825825826,"gps_lng":-3.24245447447447},{"id":7634,"department_code":"22","insee_code":"22221","zip_code":"22220","name":"Plouguiel","slug":"plouguiel","gps_lat":48.80155337499998,"gps_lng":-3.2467831875},{"id":7635,"department_code":"22","insee_code":"22222","zip_code":"22580","name":"Plouha","slug":"plouha","gps_lat":48.69172830815707,"gps_lng":-2.92634900302115},{"id":7636,"department_code":"22","insee_code":"22223","zip_code":"22200","name":"Plouisy","slug":"plouisy","gps_lat":48.58136795275586,"gps_lng":-3.19247326771654},{"id":7637,"department_code":"22","insee_code":"22224","zip_code":"22300","name":"Ploulec'h","slug":"ploulec h","gps_lat":48.71860657276998,"gps_lng":-3.49890023474178},{"id":7638,"department_code":"22","insee_code":"22225","zip_code":"22970","name":"Ploumagoar","slug":"ploumagoar","gps_lat":48.53097054263566,"gps_lng":-3.11095248062015},{"id":7639,"department_code":"22","insee_code":"22226","zip_code":"22300","name":"Ploumilliau","slug":"ploumilliau","gps_lat":48.69011049019613,"gps_lng":-3.51101404411765},{"id":7640,"department_code":"22","insee_code":"22227","zip_code":"22780","name":"Plounérin","slug":"plounerin","gps_lat":48.56597766423356,"gps_lng":-3.54855708029197},{"id":7641,"department_code":"22","insee_code":"22228","zip_code":"22810","name":"Plounévez-Moëdec","slug":"plounevez moedec","gps_lat":48.55236309446256,"gps_lng":-3.44668175895766},{"id":7642,"department_code":"22","insee_code":"22229","zip_code":"22110","name":"Plounévez-Quintin","slug":"plounevez quintin","gps_lat":48.28758623880596,"gps_lng":-3.2342932238806},{"id":7643,"department_code":"22","insee_code":"22231","zip_code":"22160","name":"Plourac'h","slug":"plourac h","gps_lat":48.4203039495798,"gps_lng":-3.55539924369748},{"id":7644,"department_code":"22","insee_code":"22232","zip_code":"22410","name":"Plourhan","slug":"plourhan","gps_lat":48.63176062111798,"gps_lng":-2.87976236024845},{"id":7645,"department_code":"22","insee_code":"22233","zip_code":"22860","name":"Plourivo","slug":"plourivo","gps_lat":48.74197543478261,"gps_lng":-3.08474226086956},{"id":7646,"department_code":"22","insee_code":"22234","zip_code":"22170","name":"Plouvara","slug":"plouvara","gps_lat":48.49677085164835,"gps_lng":-2.93787651098901},{"id":7647,"department_code":"22","insee_code":"22235","zip_code":"22420","name":"Plouzélambre","slug":"plouzelambre","gps_lat":48.64546414201184,"gps_lng":-3.53754402366864},{"id":7648,"department_code":"22","insee_code":"22236","zip_code":"22290","name":"Pludual","slug":"pludual","gps_lat":48.66537435897432,"gps_lng":-2.99156172161172},{"id":7649,"department_code":"22","insee_code":"22237","zip_code":"22130","name":"Pluduno","slug":"pluduno","gps_lat":48.52298095394733,"gps_lng":-2.27771509868421},{"id":7650,"department_code":"22","insee_code":"22238","zip_code":"22310","name":"Plufur","slug":"plufur","gps_lat":48.61578927083331,"gps_lng":-3.57460052083333},{"id":7651,"department_code":"22","insee_code":"22239","zip_code":"22350","name":"Plumaudan","slug":"plumaudan","gps_lat":48.35700479797978,"gps_lng":-2.11183494949495},{"id":7652,"department_code":"22","insee_code":"22240","zip_code":"22250","name":"Plumaugat","slug":"plumaugat","gps_lat":48.24885456790123,"gps_lng":-2.2284850308642},{"id":7653,"department_code":"22","insee_code":"22241","zip_code":"22210","name":"Plumieux","slug":"plumieux","gps_lat":48.10451677740862,"gps_lng":-2.5941547176079798},{"id":7654,"department_code":"22","insee_code":"22242","zip_code":"22240","name":"Plurien","slug":"plurien","gps_lat":48.61023701388891,"gps_lng":-2.38926694444445},{"id":7655,"department_code":"22","insee_code":"22243","zip_code":"22160","name":"Plusquellec","slug":"plusquellec","gps_lat":48.39419101485151,"gps_lng":-3.47975188118812},{"id":7656,"department_code":"22","insee_code":"22244","zip_code":"22320","name":"Plussulien","slug":"plussulien","gps_lat":48.28355451104102,"gps_lng":-3.06458315457413},{"id":7657,"department_code":"22","insee_code":"22245","zip_code":"22140","name":"Pluzunet","slug":"pluzunet","gps_lat":48.63489089285715,"gps_lng":-3.37465383928571},{"id":7658,"department_code":"22","insee_code":"22246","zip_code":"22120","name":"Pommeret","slug":"pommeret","gps_lat":48.45885967741934,"gps_lng":-2.61782073732719},{"id":7659,"department_code":"22","insee_code":"22247","zip_code":"22450","name":"Pommerit-Jaudy","slug":"pommerit jaudy","gps_lat":48.72547939490443,"gps_lng":-3.2475373885350303},{"id":7660,"department_code":"22","insee_code":"22248","zip_code":"22200","name":"Pommerit-le-Vicomte","slug":"pommerit le vicomte","gps_lat":48.61319807365442,"gps_lng":-3.10014484419263},{"id":7661,"department_code":"22","insee_code":"22249","zip_code":"22390","name":"Pont-Melvez","slug":"pont melvez","gps_lat":48.47220084375,"gps_lng":-3.287406875},{"id":7662,"department_code":"22","insee_code":"22250","zip_code":"22260","name":"Pontrieux","slug":"pontrieux","gps_lat":48.69839384615386,"gps_lng":-3.15966353846154},{"id":7663,"department_code":"22","insee_code":"22251","zip_code":"22590","name":"Pordic","slug":"pordic","gps_lat":48.57231447058826,"gps_lng":-2.8344326176470602},{"id":7664,"department_code":"22","insee_code":"22253","zip_code":"22450","name":"Pouldouran","slug":"pouldouran","gps_lat":48.76347040816329,"gps_lng":-3.20184265306122},{"id":7665,"department_code":"22","insee_code":"22254","zip_code":"22140","name":"Prat","slug":"prat","gps_lat":48.68203809230767,"gps_lng":-3.29111581538462},{"id":7934,"department_code":"23","insee_code":"23149","zip_code":"23140","name":"Parsac-Rimondeix","slug":"parsac rimondeix","gps_lat":46.20932303797468,"gps_lng":2.12527094936709},{"id":7935,"department_code":"23","insee_code":"23150","zip_code":"23000","name":"Peyrabout","slug":"peyrabout","gps_lat":46.10315081081082,"gps_lng":1.91948155405405},{"id":7936,"department_code":"23","insee_code":"23151","zip_code":"23130","name":"Peyrat-la-Nonière","slug":"peyrat la noniere","gps_lat":46.0782035869565,"gps_lng":2.25493505434783},{"id":7937,"department_code":"23","insee_code":"23152","zip_code":"23130","name":"Pierrefitte","slug":"pierrefitte","gps_lat":46.15398139130433,"gps_lng":2.23543539130435},{"id":7938,"department_code":"23","insee_code":"23154","zip_code":"23140","name":"Pionnat","slug":"pionnat","gps_lat":46.16690560975613,"gps_lng":2.03592719512195},{"id":7939,"department_code":"23","insee_code":"23155","zip_code":"23250","name":"Pontarion","slug":"pontarion","gps_lat":45.99664783625732,"gps_lng":1.84835485380117},{"id":7940,"department_code":"23","insee_code":"23156","zip_code":"23260","name":"Pontcharraud","slug":"pontcharraud","gps_lat":45.8611814529915,"gps_lng":2.27628538461539},{"id":7942,"department_code":"23","insee_code":"23158","zip_code":"23500","name":"Poussanges","slug":"poussanges","gps_lat":45.82356345132741,"gps_lng":2.22002734513274},{"id":7943,"department_code":"23","insee_code":"23159","zip_code":"23130","name":"Puy-Malsignat","slug":"puy malsignat","gps_lat":46.03371428571428,"gps_lng":2.2180835},{"id":8078,"department_code":"24","insee_code":"24035","zip_code":"24170","name":"Pays de Belvès","slug":"pays de belves","gps_lat":44.753744770318,"gps_lng":0.99810024734982},{"id":8196,"department_code":"24","insee_code":"24168","zip_code":"24560","name":"Plaisance","slug":"plaisance","gps_lat":44.69491142857142,"gps_lng":0.55374802521008},{"id":8326,"department_code":"24","insee_code":"24316","zip_code":"24410","name":"Parcoul-Chenaud","slug":"parcoul chenaud","gps_lat":45.19364962068965,"gps_lng":0.05655755172414},{"id":8327,"department_code":"24","insee_code":"24317","zip_code":"24590","name":"Paulin","slug":"paulin","gps_lat":44.99476401709403,"gps_lng":1.3328041880341899},{"id":8328,"department_code":"24","insee_code":"24318","zip_code":"24510","name":"Paunat","slug":"paunat","gps_lat":44.89779156716418,"gps_lng":0.85083313432836},{"id":8329,"department_code":"24","insee_code":"24319","zip_code":"24310","name":"Paussac-et-Saint-Vivien","slug":"paussac et saint vivien","gps_lat":45.34130376068373,"gps_lng":0.54121333333333},{"id":8330,"department_code":"24","insee_code":"24320","zip_code":"24270","name":"Payzac","slug":"payzac","gps_lat":45.41751238461534,"gps_lng":1.24156248717949},{"id":8331,"department_code":"24","insee_code":"24321","zip_code":"24120","name":"Pazayac","slug":"pazayac","gps_lat":45.12307617021278,"gps_lng":1.37417680851064},{"id":8332,"department_code":"24","insee_code":"24322","zip_code":"24000","name":"Périgueux","slug":"perigueux","gps_lat":45.19490428571429,"gps_lng":0.70910014285714},{"id":8333,"department_code":"24","insee_code":"24323","zip_code":"24600","name":"Petit-Bersac","slug":"petit bersac","gps_lat":45.27105459459461,"gps_lng":0.22889972972973},{"id":8334,"department_code":"24","insee_code":"24324","zip_code":"24210","name":"Peyrignac","slug":"peyrignac","gps_lat":45.16202713043477,"gps_lng":1.19682104347826},{"id":8335,"department_code":"24","insee_code":"24325","zip_code":"24370","name":"Peyrillac-et-Millac","slug":"peyrillac et millac","gps_lat":44.89230203703706,"gps_lng":1.41001314814815},{"id":8336,"department_code":"24","insee_code":"24326","zip_code":"24620","name":"Peyzac-le-Moustier","slug":"peyzac le moustier","gps_lat":44.98289350427352,"gps_lng":1.07963068376068},{"id":8337,"department_code":"24","insee_code":"24327","zip_code":"24510","name":"Pezuls","slug":"pezuls","gps_lat":44.90791417475727,"gps_lng":0.80521669902913},{"id":8338,"department_code":"24","insee_code":"24328","zip_code":"24360","name":"Piégut-Pluviers","slug":"piegut pluviers","gps_lat":45.62939943820223,"gps_lng":0.70654735955056},{"id":8340,"department_code":"24","insee_code":"24330","zip_code":"24580","name":"Plazac","slug":"plazac","gps_lat":45.04413526315792,"gps_lng":1.03701723684211},{"id":8341,"department_code":"24","insee_code":"24331","zip_code":"24240","name":"Pomport","slug":"pomport","gps_lat":44.78866744680852,"gps_lng":0.41092387234043},{"id":8342,"department_code":"24","insee_code":"24334","zip_code":"24150","name":"Pontours","slug":"pontours","gps_lat":44.82339198019802,"gps_lng":0.77318633663366},{"id":8343,"department_code":"24","insee_code":"24335","zip_code":"33220","name":"Port-Sainte-Foy-et-Ponchapt","slug":"port sainte foy et ponchapt","gps_lat":44.86825609756099,"gps_lng":0.20349419512195},{"id":8344,"department_code":"24","insee_code":"24336","zip_code":"24370","name":"Prats-de-Carlux","slug":"prats de carlux","gps_lat":44.89414339999999,"gps_lng":1.3094569},{"id":8345,"department_code":"24","insee_code":"24337","zip_code":"24550","name":"Prats-du-Périgord","slug":"prats du perigord","gps_lat":44.68339694915255,"gps_lng":1.06835245762712},{"id":8346,"department_code":"24","insee_code":"24338","zip_code":"24150","name":"Pressignac-Vicq","slug":"pressignac vicq","gps_lat":44.89472920863308,"gps_lng":0.72455460431655},{"id":8347,"department_code":"24","insee_code":"24339","zip_code":"24160","name":"Preyssac-d'Excideuil","slug":"preyssac d excideuil","gps_lat":45.34121351851851,"gps_lng":1.10923055555556},{"id":8348,"department_code":"24","insee_code":"24340","zip_code":"24130","name":"Prigonrieux","slug":"prigonrieux","gps_lat":44.87909423076924,"gps_lng":0.40629697802198},{"id":8349,"department_code":"24","insee_code":"24341","zip_code":"24200","name":"Proissans","slug":"proissans","gps_lat":44.92846820359282,"gps_lng":1.24700838323353},{"id":8711,"department_code":"25","insee_code":"25156","zip_code":"25340","name":"Pays de Clerval","slug":"pays de clerval","gps_lat":47.39969235294118,"gps_lng":6.50590274509804},{"id":8976,"department_code":"25","insee_code":"25443","zip_code":"25440","name":"Palantine","slug":"palantine","gps_lat":47.10002735849056,"gps_lng":5.94299962264151},{"id":8977,"department_code":"25","insee_code":"25444","zip_code":"25870","name":"Palise","slug":"palise","gps_lat":47.3652820754717,"gps_lng":6.09245716981132},{"id":8978,"department_code":"25","insee_code":"25445","zip_code":"25440","name":"Paroy","slug":"paroy","gps_lat":47.03668915492957,"gps_lng":5.88206605633803},{"id":8979,"department_code":"25","insee_code":"25446","zip_code":"25360","name":"Passavant","slug":"passavant","gps_lat":47.27419943820224,"gps_lng":6.39641449438202},{"id":8980,"department_code":"25","insee_code":"25447","zip_code":"25690","name":"Passonfontaine","slug":"passonfontaine","gps_lat":47.10269774193549,"gps_lng":6.41459698924731},{"id":8981,"department_code":"25","insee_code":"25448","zip_code":"25170","name":"Pelousey","slug":"pelousey","gps_lat":47.27780170454546,"gps_lng":5.92574329545455},{"id":8982,"department_code":"25","insee_code":"25449","zip_code":"25190","name":"Péseux","slug":"peseux","gps_lat":47.31889043956046,"gps_lng":6.68480362637363},{"id":8983,"department_code":"25","insee_code":"25450","zip_code":"25440","name":"Pessans","slug":"pessans","gps_lat":47.07159588235295,"gps_lng":5.89052254901961},{"id":8984,"department_code":"25","insee_code":"25451","zip_code":"25240","name":"Petite-Chaux","slug":"petite chaux","gps_lat":46.67903233766233,"gps_lng":6.16869090909091},{"id":8985,"department_code":"25","insee_code":"25452","zip_code":"25310","name":"Pierrefontaine-lès-Blamont","slug":"pierrefontaine les blamont","gps_lat":47.37386108433736,"gps_lng":6.82087963855422},{"id":8986,"department_code":"25","insee_code":"25453","zip_code":"25510","name":"Pierrefontaine-les-Varans","slug":"pierrefontaine les varans","gps_lat":47.21697504950492,"gps_lng":6.56038331683168},{"id":8987,"department_code":"25","insee_code":"25454","zip_code":"25480","name":"Pirey","slug":"pirey","gps_lat":47.26336134146341,"gps_lng":5.96389951219512},{"id":8988,"department_code":"25","insee_code":"25455","zip_code":"25170","name":"Placey","slug":"placey","gps_lat":47.25861157894736,"gps_lng":5.850595},{"id":8989,"department_code":"25","insee_code":"25456","zip_code":"25210","name":"Plaimbois-du-Miroir","slug":"plaimbois du miroir","gps_lat":47.19399105960265,"gps_lng":6.6442703311258295},{"id":8990,"department_code":"25","insee_code":"25457","zip_code":"25390","name":"Plaimbois-Vennes","slug":"plaimbois vennes","gps_lat":47.18571357142859,"gps_lng":6.55501006493507},{"id":8994,"department_code":"25","insee_code":"25461","zip_code":"25340","name":"Pompierre-sur-Doubs","slug":"pompierre sur doubs","gps_lat":47.42401671052632,"gps_lng":6.52388092105263},{"id":8995,"department_code":"25","insee_code":"25462","zip_code":"25300","name":"Pontarlier","slug":"pontarlier","gps_lat":46.91543401360546,"gps_lng":6.38983442176871},{"id":8996,"department_code":"25","insee_code":"25463","zip_code":"25150","name":"Pont-de-Roide-Vermondans","slug":"pont de roide vermondans","gps_lat":47.38249512195122,"gps_lng":6.76234609756097},{"id":8998,"department_code":"25","insee_code":"25465","zip_code":"25110","name":"Pont-les-Moulins","slug":"pont les moulins","gps_lat":47.32626788461539,"gps_lng":6.36482692307692},{"id":8999,"department_code":"25","insee_code":"25466","zip_code":"25410","name":"Pouilley-Français","slug":"pouilley francais","gps_lat":47.20650333333331,"gps_lng":5.8452609649122795},{"id":9000,"department_code":"25","insee_code":"25467","zip_code":"25115","name":"Pouilley-les-Vignes","slug":"pouilley les vignes","gps_lat":47.26187606741573,"gps_lng":5.93373668539326},{"id":9001,"department_code":"25","insee_code":"25468","zip_code":"25640","name":"Pouligney-Lusans","slug":"pouligney lusans","gps_lat":47.33892305970148,"gps_lng":6.20200186567164},{"id":9002,"department_code":"25","insee_code":"25469","zip_code":"25550","name":"Présentevillers","slug":"presentevillers","gps_lat":47.50084292682926,"gps_lng":6.72973682926829},{"id":9004,"department_code":"25","insee_code":"25471","zip_code":"25380","name":"Provenchère","slug":"provenchere","gps_lat":47.29097722222221,"gps_lng":6.64276455555555},{"id":9005,"department_code":"25","insee_code":"25472","zip_code":"25680","name":"Puessans","slug":"puessans","gps_lat":47.43325452631579,"gps_lng":6.324246},{"id":9006,"department_code":"25","insee_code":"25473","zip_code":"25720","name":"Pugey","slug":"pugey","gps_lat":47.16881958904109,"gps_lng":5.99145260273973},{"id":9368,"department_code":"26","insee_code":"26225","zip_code":"26750","name":"Parnans","slug":"parnans","gps_lat":45.11471275862067,"gps_lng":5.15657965517241},{"id":9370,"department_code":"26","insee_code":"26227","zip_code":"26510","name":"Pelonne","slug":"pelonne","gps_lat":44.38228,"gps_lng":5.38078519230769},{"id":9371,"department_code":"26","insee_code":"26228","zip_code":"26340","name":"Pennes-le-Sec","slug":"pennes le sec","gps_lat":44.6346940677966,"gps_lng":5.3189197457627095},{"id":9373,"department_code":"26","insee_code":"26231","zip_code":"26380","name":"Peyrins","slug":"peyrins","gps_lat":45.10102210526316,"gps_lng":5.04365536842105},{"id":9374,"department_code":"26","insee_code":"26232","zip_code":"26120","name":"Peyrus","slug":"peyrus","gps_lat":44.90483433628319,"gps_lng":5.12324911504425},{"id":9375,"department_code":"26","insee_code":"26233","zip_code":"26110","name":"Piégon","slug":"piegon","gps_lat":44.30088789855072,"gps_lng":5.12723449275363},{"id":9376,"department_code":"26","insee_code":"26234","zip_code":"26400","name":"Piégros-la-Clastre","slug":"piegros la clastre","gps_lat":44.68476896969698,"gps_lng":5.09793927272727},{"id":9377,"department_code":"26","insee_code":"26235","zip_code":"26700","name":"Pierrelatte","slug":"pierrelatte","gps_lat":44.36982377192982,"gps_lng":4.69763649122807},{"id":9378,"department_code":"26","insee_code":"26236","zip_code":"26170","name":"Pierrelongue","slug":"pierrelongue","gps_lat":44.25095825000001,"gps_lng":5.21429775},{"id":9380,"department_code":"26","insee_code":"26239","zip_code":"26170","name":"Plaisians","slug":"plaisians","gps_lat":44.22505568181819,"gps_lng":5.33931212121212},{"id":9381,"department_code":"26","insee_code":"26240","zip_code":"26400","name":"Plan-de-Baix","slug":"plan de baix","gps_lat":44.82416757396449,"gps_lng":5.16925349112426},{"id":9386,"department_code":"26","insee_code":"26245","zip_code":"26470","name":"Pommerol","slug":"pommerol","gps_lat":44.43745714285713,"gps_lng":5.46586226190476},{"id":9387,"department_code":"26","insee_code":"26246","zip_code":"26150","name":"Ponet-et-Saint-Auban","slug":"ponet et saint auban","gps_lat":44.77232240384615,"gps_lng":5.31287644230769},{"id":9388,"department_code":"26","insee_code":"26247","zip_code":"26240","name":"Ponsas","slug":"ponsas","gps_lat":45.15317393442623,"gps_lng":4.84536491803279},{"id":9389,"department_code":"26","insee_code":"26248","zip_code":"26150","name":"Pontaix","slug":"pontaix","gps_lat":44.75552438848923,"gps_lng":5.25404223021583},{"id":9390,"department_code":"26","insee_code":"26249","zip_code":"26160","name":"Pont-de-Barret","slug":"pont de barret","gps_lat":44.58592806250002,"gps_lng":4.997574125},{"id":9391,"department_code":"26","insee_code":"26250","zip_code":"26600","name":"Pont-de-l'Isère","slug":"pont de l isere","gps_lat":45.01173102564103,"gps_lng":4.8755948717948705},{"id":9392,"department_code":"26","insee_code":"26251","zip_code":"26160","name":"Portes-en-Valdaine","slug":"portes en valdaine","gps_lat":44.53185033112582,"gps_lng":4.91210119205298},{"id":9393,"department_code":"26","insee_code":"26252","zip_code":"26800","name":"Portes-lès-Valence","slug":"portes les valence","gps_lat":44.873689,"gps_lng":4.8818915},{"id":9394,"department_code":"26","insee_code":"26253","zip_code":"26310","name":"Poyols","slug":"poyols","gps_lat":44.59770049180328,"gps_lng":5.42092237704918},{"id":9395,"department_code":"26","insee_code":"26254","zip_code":"26340","name":"Pradelle","slug":"pradelle","gps_lat":44.62088377049183,"gps_lng":5.28209319672131},{"id":9397,"department_code":"26","insee_code":"26256","zip_code":"26170","name":"Propiac","slug":"propiac","gps_lat":44.2760058490566,"gps_lng":5.20687801886793},{"id":9398,"department_code":"26","insee_code":"26257","zip_code":"26160","name":"Puygiron","slug":"puygiron","gps_lat":44.54307186046511,"gps_lng":4.8519223255814},{"id":9399,"department_code":"26","insee_code":"26258","zip_code":"26450","name":"Puy-Saint-Martin","slug":"puy saint martin","gps_lat":44.62611951807229,"gps_lng":4.97464180722891},{"id":9919,"department_code":"27","insee_code":"27448","zip_code":"27120","name":"Pacy-sur-Eure","slug":"pacy sur eure","gps_lat":49.0189434285714,"gps_lng":1.38364611428572},{"id":9920,"department_code":"27","insee_code":"27451","zip_code":"27180","name":"Parville","slug":"parville","gps_lat":49.03357175438596,"gps_lng":1.09237105263158},{"id":9921,"department_code":"27","insee_code":"27453","zip_code":"27910","name":"Perriers-sur-Andelle","slug":"perriers sur andelle","gps_lat":49.40543302752297,"gps_lng":1.36649201834862},{"id":9922,"department_code":"27","insee_code":"27454","zip_code":"27910","name":"Perruel","slug":"perruel","gps_lat":49.43399855263158,"gps_lng":1.3604475},{"id":9923,"department_code":"27","insee_code":"27455","zip_code":"27230","name":"Piencourt","slug":"piencourt","gps_lat":49.16903057471263,"gps_lng":0.40515436781609},{"id":9924,"department_code":"27","insee_code":"27456","zip_code":"27400","name":"Pinterville","slug":"pinterville","gps_lat":49.19013799999999,"gps_lng":1.19446384615385},{"id":9925,"department_code":"27","insee_code":"27457","zip_code":"27130","name":"Piseux","slug":"piseux","gps_lat":48.7739818115942,"gps_lng":0.96661797101449},{"id":9926,"department_code":"27","insee_code":"27458","zip_code":"27590","name":"Pîtres","slug":"pitres","gps_lat":49.33325161904763,"gps_lng":1.21822704761905},{"id":9928,"department_code":"27","insee_code":"27460","zip_code":"27300","name":"Plainville","slug":"plainville","gps_lat":49.07931888888889,"gps_lng":0.50189430555556},{"id":9930,"department_code":"27","insee_code":"27463","zip_code":"27300","name":"Plasnes","slug":"plasnes","gps_lat":49.13409646551723,"gps_lng":0.62741715517241},{"id":9934,"department_code":"27","insee_code":"27467","zip_code":"27500","name":"Pont-Audemer","slug":"pont audemer","gps_lat":49.34448563559324,"gps_lng":0.52421550847458},{"id":9935,"department_code":"27","insee_code":"27468","zip_code":"27290","name":"Pont-Authou","slug":"pont authou","gps_lat":49.2407990225564,"gps_lng":0.70371285714286},{"id":9936,"department_code":"27","insee_code":"27469","zip_code":"27340","name":"Pont-de-l'Arche","slug":"pont de l arche","gps_lat":49.30151999999999,"gps_lng":1.14177333333333},{"id":9937,"department_code":"27","insee_code":"27470","zip_code":"27360","name":"Pont-Saint-Pierre","slug":"pont saint pierre","gps_lat":49.3402480952381,"gps_lng":1.28911087301587},{"id":9938,"department_code":"27","insee_code":"27471","zip_code":"27100","name":"Porte-de-Seine","slug":"porte de seine","gps_lat":49.244617,"gps_lng":1.253486},{"id":9939,"department_code":"27","insee_code":"27471","zip_code":"27430","name":"Porte-de-Seine","slug":"porte de seine","gps_lat":49.244617,"gps_lng":1.253486},{"id":9940,"department_code":"27","insee_code":"27472","zip_code":"27190","name":"Portes","slug":"portes","gps_lat":49.02496999999997,"gps_lng":0.9479445},{"id":9941,"department_code":"27","insee_code":"27473","zip_code":"27940","name":"Port-Mort","slug":"port mort","gps_lat":49.17130896103895,"gps_lng":1.40941974025974},{"id":9942,"department_code":"27","insee_code":"27474","zip_code":"27740","name":"Poses","slug":"poses","gps_lat":49.2983134,"gps_lng":1.2469654000000001},{"id":9945,"department_code":"27","insee_code":"27477","zip_code":"27510","name":"Pressagny-l'Orgueilleux","slug":"pressagny l orgueilleux","gps_lat":49.13227315068493,"gps_lng":1.45966150684932},{"id":9946,"department_code":"27","insee_code":"27478","zip_code":"27220","name":"Prey","slug":"prey","gps_lat":48.95645472222222,"gps_lng":1.22346472222222},{"id":9947,"department_code":"27","insee_code":"27480","zip_code":"27150","name":"Puchay","slug":"puchay","gps_lat":49.35869444444444,"gps_lng":1.53049722222222},{"id":9948,"department_code":"27","insee_code":"27481","zip_code":"27130","name":"Pullay","slug":"pullay","gps_lat":48.72694833333335,"gps_lng":0.8680851754386},{"id":10394,"department_code":"28","insee_code":"28296","zip_code":"28140","name":"Péronville","slug":"peronville","gps_lat":48.0622578,"gps_lng":1.5804738999999999},{"id":10395,"department_code":"28","insee_code":"28298","zip_code":"28130","name":"Pierres","slug":"pierres","gps_lat":48.59203972602739,"gps_lng":1.56027712328767},{"id":10397,"department_code":"28","insee_code":"28300","zip_code":"28310","name":"Poinville","slug":"poinville","gps_lat":48.1772943902439,"gps_lng":1.90296731707317},{"id":10398,"department_code":"28","insee_code":"28301","zip_code":"28300","name":"Poisvilliers","slug":"poisvilliers","gps_lat":48.50889877551019,"gps_lng":1.45967714285714},{"id":10399,"department_code":"28","insee_code":"28302","zip_code":"28190","name":"Pontgouin","slug":"pontgouin","gps_lat":48.49185761538462,"gps_lng":1.14204123076923},{"id":10400,"department_code":"28","insee_code":"28303","zip_code":"28140","name":"Poupry","slug":"poupry","gps_lat":48.09808063492063,"gps_lng":1.83112444444444},{"id":10401,"department_code":"28","insee_code":"28304","zip_code":"28150","name":"Prasville","slug":"prasville","gps_lat":48.27323814814814,"gps_lng":1.71637716049383},{"id":10402,"department_code":"28","insee_code":"28305","zip_code":"28800","name":"Pré-Saint-Évroult","slug":"pre saint evroult","gps_lat":48.1844895945946,"gps_lng":1.45349878378378},{"id":10403,"department_code":"28","insee_code":"28306","zip_code":"28800","name":"Pré-Saint-Martin","slug":"pre saint martin","gps_lat":48.2217711111111,"gps_lng":1.4652162962963},{"id":10404,"department_code":"28","insee_code":"28308","zip_code":"28270","name":"Prudemanche","slug":"prudemanche","gps_lat":48.72402,"gps_lng":1.13163063063063},{"id":10405,"department_code":"28","insee_code":"28309","zip_code":"28360","name":"Prunay-le-Gillon","slug":"prunay le gillon","gps_lat":48.36305905405405,"gps_lng":1.6285439189189201},{"id":10408,"department_code":"28","insee_code":"28312","zip_code":"28170","name":"Puiseux","slug":"puiseux","gps_lat":48.63900055555555,"gps_lng":1.36831361111111},{"id":10529,"department_code":"29","insee_code":"29021","zip_code":"29890","name":"Plounéour-Brignogan-plages","slug":"plouneour brignogan plages","gps_lat":48.66498966666666,"gps_lng":-4.33283112121213},{"id":10653,"department_code":"29","insee_code":"29156","zip_code":"29800","name":"Pencran","slug":"pencran","gps_lat":48.44570975155281,"gps_lng":-4.21725062111801},{"id":10654,"department_code":"29","insee_code":"29158","zip_code":"29760","name":"Penmarch","slug":"penmarch","gps_lat":47.81291882142855,"gps_lng":-4.35356985714286},{"id":10655,"department_code":"29","insee_code":"29159","zip_code":"29710","name":"Peumerit","slug":"peumerit","gps_lat":47.94652452261307,"gps_lng":-4.29536472361809},{"id":10656,"department_code":"29","insee_code":"29160","zip_code":"29860","name":"Plabennec","slug":"plabennec","gps_lat":48.49692531914894,"gps_lng":-4.41929638297872},{"id":10657,"department_code":"29","insee_code":"29161","zip_code":"29170","name":"Pleuven","slug":"pleuven","gps_lat":47.91276333333334,"gps_lng":-4.0469041025641},{"id":10658,"department_code":"29","insee_code":"29162","zip_code":"29190","name":"Pleyben","slug":"pleyben","gps_lat":48.24634814207651,"gps_lng":-3.96474393442623},{"id":10659,"department_code":"29","insee_code":"29163","zip_code":"29410","name":"Pleyber-Christ","slug":"pleyber christ","gps_lat":48.50634504115224,"gps_lng":-3.87309115226337},{"id":10660,"department_code":"29","insee_code":"29165","zip_code":"29740","name":"Plobannalec-Lesconil","slug":"plobannalec lesconil","gps_lat":47.81904078512395,"gps_lng":-4.2247205371900804},{"id":10661,"department_code":"29","insee_code":"29166","zip_code":"29550","name":"Ploéven","slug":"ploeven","gps_lat":48.15581652173915,"gps_lng":-4.2177938647343},{"id":10662,"department_code":"29","insee_code":"29167","zip_code":"29710","name":"Plogastel-Saint-Germain","slug":"plogastel saint germain","gps_lat":47.97343399463809,"gps_lng":-4.25986528150134},{"id":10663,"department_code":"29","insee_code":"29168","zip_code":"29770","name":"Plogoff","slug":"plogoff","gps_lat":48.03431645333335,"gps_lng":-4.70055688},