[{"id":295,"department_code":"01","insee_code":"01331","zip_code":"01450","name":"Saint-Alban","slug":"saint alban","gps_lat":46.09774837209303,"gps_lng":5.4549434883720895},{"id":296,"department_code":"01","insee_code":"01332","zip_code":"01380","name":"Saint-André-de-Bâgé","slug":"saint andre de bage","gps_lat":46.29924897435898,"gps_lng":4.91489641025641},{"id":297,"department_code":"01","insee_code":"01333","zip_code":"01390","name":"Saint-André-de-Corcy","slug":"saint andre de corcy","gps_lat":45.922975488721804,"gps_lng":4.95111691729323},{"id":298,"department_code":"01","insee_code":"01334","zip_code":"01290","name":"Saint-André-d'Huiriat","slug":"saint andre d huiriat","gps_lat":46.21086023529411,"gps_lng":4.90521682352941},{"id":299,"department_code":"01","insee_code":"01335","zip_code":"01240","name":"Saint-André-le-Bouchoux","slug":"saint andre le bouchoux","gps_lat":46.11387000000001,"gps_lng":5.08010153225806},{"id":300,"department_code":"01","insee_code":"01336","zip_code":"01960","name":"Saint-André-sur-Vieux-Jonc","slug":"saint andre sur vieux jonc","gps_lat":46.15003497991969,"gps_lng":5.14227281124498},{"id":301,"department_code":"01","insee_code":"01337","zip_code":"01190","name":"Saint-Bénigne","slug":"saint benigne","gps_lat":46.44806864999997,"gps_lng":4.95658635},{"id":304,"department_code":"01","insee_code":"01339","zip_code":"01600","name":"Saint-Bernard","slug":"saint bernard","gps_lat":45.9492406122449,"gps_lng":4.74524653061225},{"id":305,"department_code":"01","insee_code":"01341","zip_code":"01300","name":"Saint-Champ","slug":"saint champ","gps_lat":45.78456185185185,"gps_lng":5.72885061728395},{"id":306,"department_code":"01","insee_code":"01342","zip_code":"01120","name":"Sainte-Croix","slug":"sainte croix","gps_lat":45.89784517543858,"gps_lng":5.04720859649123},{"id":307,"department_code":"01","insee_code":"01343","zip_code":"01380","name":"Saint-Cyr-sur-Menthon","slug":"saint cyr sur menthon","gps_lat":46.27366670103091,"gps_lng":4.96571386597938},{"id":308,"department_code":"01","insee_code":"01344","zip_code":"01000","name":"Saint-Denis-lès-Bourg","slug":"saint denis les bourg","gps_lat":46.21160395480224,"gps_lng":5.17989163841808},{"id":309,"department_code":"01","insee_code":"01345","zip_code":"01500","name":"Saint-Denis-en-Bugey","slug":"saint denis en bugey","gps_lat":45.94942241935484,"gps_lng":5.32376661290323},{"id":310,"department_code":"01","insee_code":"01346","zip_code":"01340","name":"Saint-Didier-d'Aussiat","slug":"saint didier d aussiat","gps_lat":46.30805965811967,"gps_lng":5.05480594017093},{"id":311,"department_code":"01","insee_code":"01347","zip_code":"01600","name":"Saint-Didier-de-Formans","slug":"saint didier de formans","gps_lat":45.95626085106385,"gps_lng":4.77440574468085},{"id":312,"department_code":"01","insee_code":"01348","zip_code":"01140","name":"Saint-Didier-sur-Chalaronne","slug":"saint didier sur chalaronne","gps_lat":46.1846451977401,"gps_lng":4.8200663276836195},{"id":313,"department_code":"01","insee_code":"01349","zip_code":"01800","name":"Saint-Éloi","slug":"saint eloi","gps_lat":45.93270892857141,"gps_lng":5.15404085714286},{"id":314,"department_code":"01","insee_code":"01350","zip_code":"01370","name":"Saint-Étienne-du-Bois","slug":"saint etienne du bois","gps_lat":46.27508734375,"gps_lng":5.28916484375},{"id":315,"department_code":"01","insee_code":"01351","zip_code":"01140","name":"Saint-Étienne-sur-Chalaronne","slug":"saint etienne sur chalaronne","gps_lat":46.14400454976301,"gps_lng":4.87313890995261},{"id":316,"department_code":"01","insee_code":"01352","zip_code":"01190","name":"Saint-Étienne-sur-Reyssouze","slug":"saint etienne sur reyssouze","gps_lat":46.40371314814815,"gps_lng":5.00943537037037},{"id":317,"department_code":"01","insee_code":"01353","zip_code":"01600","name":"Sainte-Euphémie","slug":"sainte euphemie","gps_lat":45.9710912121212,"gps_lng":4.79193454545454},{"id":318,"department_code":"01","insee_code":"01354","zip_code":"01630","name":"Saint-Genis-Pouilly","slug":"saint genis pouilly","gps_lat":46.25531061452515,"gps_lng":6.03380296089385},{"id":319,"department_code":"01","insee_code":"01355","zip_code":"01380","name":"Saint-Genis-sur-Menthon","slug":"saint genis sur menthon","gps_lat":46.28185601265824,"gps_lng":5.01318683544304},{"id":320,"department_code":"01","insee_code":"01356","zip_code":"01400","name":"Saint-Georges-sur-Renon","slug":"saint georges sur renon","gps_lat":46.10366440366973,"gps_lng":5.02947935779816},{"id":321,"department_code":"01","insee_code":"01357","zip_code":"01130","name":"Saint-Germain-de-Joux","slug":"saint germain de joux","gps_lat":46.18433781456954,"gps_lng":5.7397023178808},{"id":322,"department_code":"01","insee_code":"01358","zip_code":"01300","name":"Saint-Germain-les-Paroisses","slug":"saint germain les paroisses","gps_lat":45.7657465034965,"gps_lng":5.61959426573426},{"id":323,"department_code":"01","insee_code":"01359","zip_code":"01240","name":"Saint-Germain-sur-Renon","slug":"saint germain sur renon","gps_lat":46.07776645348836,"gps_lng":5.05607988372093},{"id":324,"department_code":"01","insee_code":"01360","zip_code":"01630","name":"Saint-Jean-de-Gonville","slug":"saint jean de gonville","gps_lat":46.21356753731345,"gps_lng":5.94854089552239},{"id":325,"department_code":"01","insee_code":"01361","zip_code":"01800","name":"Saint-Jean-de-Niost","slug":"saint jean de niost","gps_lat":45.84241179104477,"gps_lng":5.20586895522388},{"id":326,"department_code":"01","insee_code":"01362","zip_code":"01390","name":"Saint-Jean-de-Thurigneux","slug":"saint jean de thurigneux","gps_lat":45.95559697674419,"gps_lng":4.90843581395349},{"id":327,"department_code":"01","insee_code":"01363","zip_code":"01640","name":"Saint-Jean-le-Vieux","slug":"saint jean le vieux","gps_lat":46.03134444444444,"gps_lng":5.38383333333333},{"id":328,"department_code":"01","insee_code":"01364","zip_code":"01560","name":"Saint-Jean-sur-Reyssouze","slug":"saint jean sur reyssouze","gps_lat":46.39631568106309,"gps_lng":5.06083169435216},{"id":329,"department_code":"01","insee_code":"01365","zip_code":"01290","name":"Saint-Jean-sur-Veyle","slug":"saint jean sur veyle","gps_lat":46.26549675,"gps_lng":4.926397625},{"id":330,"department_code":"01","insee_code":"01366","zip_code":"01150","name":"Sainte-Julie","slug":"sainte julie","gps_lat":45.89051884615385,"gps_lng":5.28701},{"id":331,"department_code":"01","insee_code":"01367","zip_code":"01560","name":"Saint-Julien-sur-Reyssouze","slug":"saint julien sur reyssouze","gps_lat":46.39746005405404,"gps_lng":5.10659610810811},{"id":332,"department_code":"01","insee_code":"01368","zip_code":"01540","name":"Saint-Julien-sur-Veyle","slug":"saint julien sur veyle","gps_lat":46.2050047826087,"gps_lng":4.95970105590062},{"id":333,"department_code":"01","insee_code":"01369","zip_code":"01250","name":"Saint-Just","slug":"saint just","gps_lat":46.19257817307693,"gps_lng":5.28545384615385},{"id":334,"department_code":"01","insee_code":"01370","zip_code":"01750","name":"Saint-Laurent-sur-Saône","slug":"saint laurent sur saone","gps_lat":46.30559999999999,"gps_lng":4.84068764705882},{"id":335,"department_code":"01","insee_code":"01371","zip_code":"01390","name":"Saint-Marcel","slug":"saint marcel","gps_lat":45.94904343283581,"gps_lng":4.98802552238806},{"id":336,"department_code":"01","insee_code":"01372","zip_code":"01510","name":"Saint-Martin-de-Bavel","slug":"saint martin de bavel","gps_lat":45.84840799999998,"gps_lng":5.6790085},{"id":337,"department_code":"01","insee_code":"01373","zip_code":"01430","name":"Saint-Martin-du-Frêne","slug":"saint martin du frene","gps_lat":46.13791208955224,"gps_lng":5.56071880597015},{"id":338,"department_code":"01","insee_code":"01374","zip_code":"01160","name":"Saint-Martin-du-Mont","slug":"saint martin du mont","gps_lat":46.10578908045978,"gps_lng":5.33636028735632},{"id":339,"department_code":"01","insee_code":"01375","zip_code":"01310","name":"Saint-Martin-le-Châtel","slug":"saint martin le chatel","gps_lat":46.28954696428571,"gps_lng":5.12484839285714},{"id":340,"department_code":"01","insee_code":"01376","zip_code":"01700","name":"Saint-Maurice-de-Beynost","slug":"saint maurice de beynost","gps_lat":45.84006082474225,"gps_lng":4.9750116494845305},{"id":341,"department_code":"01","insee_code":"01378","zip_code":"01800","name":"Saint-Maurice-de-Gourdans","slug":"saint maurice de gourdans","gps_lat":45.81625868852458,"gps_lng":5.17192393442623},{"id":342,"department_code":"01","insee_code":"01379","zip_code":"01500","name":"Saint-Maurice-de-Rémens","slug":"saint maurice de remens","gps_lat":45.95909158878506,"gps_lng":5.27397364485981},{"id":343,"department_code":"01","insee_code":"01380","zip_code":"01560","name":"Saint-Nizier-le-Bouchoux","slug":"saint nizier le bouchoux","gps_lat":46.45552424342106,"gps_lng":5.17716378289474},{"id":344,"department_code":"01","insee_code":"01381","zip_code":"01320","name":"Saint-Nizier-le-Désert","slug":"saint nizier le desert","gps_lat":46.05662191256829,"gps_lng":5.14483453551913},{"id":345,"department_code":"01","insee_code":"01382","zip_code":"01330","name":"Sainte-Olive","slug":"sainte olive","gps_lat":46.01548210084034,"gps_lng":4.9349597478991605},{"id":346,"department_code":"01","insee_code":"01383","zip_code":"01240","name":"Saint-Paul-de-Varax","slug":"saint paul de varax","gps_lat":46.09453255319146,"gps_lng":5.13234314893617},{"id":347,"department_code":"01","insee_code":"01384","zip_code":"01230","name":"Saint-Rambert-en-Bugey","slug":"saint rambert en bugey","gps_lat":45.95194831858408,"gps_lng":5.44212986725664},{"id":348,"department_code":"01","insee_code":"01385","zip_code":"01310","name":"Saint-Rémy","slug":"saint remy","gps_lat":46.18272301587302,"gps_lng":5.16711484126984},{"id":349,"department_code":"01","insee_code":"01386","zip_code":"01150","name":"Saint-Sorlin-en-Bugey","slug":"saint sorlin en bugey","gps_lat":45.88902216666667,"gps_lng":5.37645925},{"id":350,"department_code":"01","insee_code":"01387","zip_code":"01340","name":"Saint-Sulpice","slug":"saint sulpice","gps_lat":46.32056083333335,"gps_lng":5.04282476190476},{"id":351,"department_code":"01","insee_code":"01388","zip_code":"01560","name":"Saint-Trivier-de-Courtes","slug":"saint trivier de courtes","gps_lat":46.45827512690356,"gps_lng":5.06655294416244},{"id":352,"department_code":"01","insee_code":"01389","zip_code":"01990","name":"Saint-Trivier-sur-Moignans","slug":"saint trivier sur moignans","gps_lat":46.05821679245282,"gps_lng":4.9023261509434},{"id":353,"department_code":"01","insee_code":"01390","zip_code":"01150","name":"Saint-Vulbas","slug":"saint vulbas","gps_lat":45.83187593750002,"gps_lng":5.2759490625},{"id":354,"department_code":"01","insee_code":"01391","zip_code":"01270","name":"Salavre","slug":"salavre","gps_lat":46.36444401273886,"gps_lng":5.34444095541402},{"id":355,"department_code":"01","insee_code":"01392","zip_code":"01580","name":"Samognat","slug":"samognat","gps_lat":46.26925094936709,"gps_lng":5.59032284810127},{"id":356,"department_code":"01","insee_code":"01393","zip_code":"01400","name":"Sandrans","slug":"sandrans","gps_lat":46.06904535315985,"gps_lng":4.97822918215613},{"id":357,"department_code":"01","insee_code":"01396","zip_code":"01150","name":"Sault-Brénaz","slug":"sault brenaz","gps_lat":45.86562320987655,"gps_lng":5.40920975308642},{"id":358,"department_code":"01","insee_code":"01397","zip_code":"01220","name":"Sauverny","slug":"sauverny","gps_lat":46.31267472727274,"gps_lng":6.11318436363636},{"id":359,"department_code":"01","insee_code":"01398","zip_code":"01480","name":"Savigneux","slug":"savigneux","gps_lat":46.00049097345132,"gps_lng":4.86553398230088},{"id":360,"department_code":"01","insee_code":"01399","zip_code":"01170","name":"Ségny","slug":"segny","gps_lat":46.29180965517242,"gps_lng":6.07075620689655},{"id":361,"department_code":"01","insee_code":"01400","zip_code":"01470","name":"Seillonnaz","slug":"seillonnaz","gps_lat":45.79491759259259,"gps_lng":5.50369722222222},{"id":362,"department_code":"01","insee_code":"01401","zip_code":"01630","name":"Sergy","slug":"sergy","gps_lat":46.25531027777778,"gps_lng":6.00590231481482},{"id":363,"department_code":"01","insee_code":"01402","zip_code":"01190","name":"Sermoyer","slug":"sermoyer","gps_lat":46.49876990147784,"gps_lng":4.97356049261084},{"id":364,"department_code":"01","insee_code":"01403","zip_code":"01470","name":"Serrières-de-Briord","slug":"serrieres de briord","gps_lat":45.8116946153846,"gps_lng":5.44787},{"id":365,"department_code":"01","insee_code":"01404","zip_code":"01450","name":"Serrières-sur-Ain","slug":"serrieres sur ain","gps_lat":46.14763535353536,"gps_lng":5.4510002020202},{"id":366,"department_code":"01","insee_code":"01405","zip_code":"01960","name":"Servas","slug":"servas","gps_lat":46.13731812499999,"gps_lng":5.17788831730769},{"id":367,"department_code":"01","insee_code":"01406","zip_code":"01560","name":"Servignat","slug":"servignat","gps_lat":46.43491145038167,"gps_lng":5.06027374045802},{"id":368,"department_code":"01","insee_code":"01407","zip_code":"01420","name":"Seyssel","slug":"seyssel","gps_lat":45.95024666666666,"gps_lng":5.82803090909091},{"id":369,"department_code":"01","insee_code":"01408","zip_code":"01250","name":"Simandre-sur-Suran","slug":"simandre sur suran","gps_lat":46.23527455284553,"gps_lng":5.42719089430894},{"id":370,"department_code":"01","insee_code":"01410","zip_code":"01580","name":"Sonthonnax-la-Montagne","slug":"sonthonnax la montagne","gps_lat":46.22298057377048,"gps_lng":5.50742229508196},{"id":371,"department_code":"01","insee_code":"01411","zip_code":"01150","name":"Souclin","slug":"souclin","gps_lat":45.87654414772725,"gps_lng":5.42992590909091},{"id":372,"department_code":"01","insee_code":"01412","zip_code":"01400","name":"Sulignat","slug":"sulignat","gps_lat":46.17491182320443,"gps_lng":4.95645651933702},{"id":373,"department_code":"01","insee_code":"01413","zip_code":"01420","name":"Surjoux","slug":"surjoux","gps_lat":46.03215631578948,"gps_lng":5.79776407894737},{"id":374,"department_code":"01","insee_code":"01414","zip_code":"01260","name":"Sutrieu","slug":"sutrieu","gps_lat":45.92185180645163,"gps_lng":5.65339387096774},{"id":1057,"department_code":"02","insee_code":"02667","zip_code":"02200","name":"Saconin-et-Breuil","slug":"saconin et breuil","gps_lat":49.3456756140351,"gps_lng":3.24364824561403},{"id":1058,"department_code":"02","insee_code":"02668","zip_code":"02120","name":"Sains-Richaumont","slug":"sains richaumont","gps_lat":49.82755911764704,"gps_lng":3.70479529411765},{"id":1059,"department_code":"02","insee_code":"02670","zip_code":"02260","name":"Saint-Algis","slug":"saint algis","gps_lat":49.8872256716418,"gps_lng":3.82851343283582},{"id":1060,"department_code":"02","insee_code":"02671","zip_code":"02300","name":"Saint-Aubin","slug":"saint aubin","gps_lat":49.51603939759035,"gps_lng":3.18733132530121},{"id":1061,"department_code":"02","insee_code":"02672","zip_code":"02290","name":"Saint-Bandry","slug":"saint bandry","gps_lat":49.36664145833333,"gps_lng":3.15980916666667},{"id":1062,"department_code":"02","insee_code":"02673","zip_code":"02290","name":"Saint-Christophe-à-Berry","slug":"saint christophe a berry","gps_lat":49.42815896551722,"gps_lng":3.13820267241379},{"id":1063,"department_code":"02","insee_code":"02674","zip_code":"02360","name":"Saint-Clément","slug":"saint clement","gps_lat":49.77449605263159,"gps_lng":4.0717750877193},{"id":1064,"department_code":"02","insee_code":"02675","zip_code":"02820","name":"Sainte-Croix","slug":"sainte croix","gps_lat":49.47806630434783,"gps_lng":3.78030456521739},{"id":1065,"department_code":"02","insee_code":"02676","zip_code":"02820","name":"Saint-Erme-Outre-et-Ramecourt","slug":"saint erme outre et ramecourt","gps_lat":49.51824019047617,"gps_lng":3.85328390476191},{"id":1066,"department_code":"02","insee_code":"02677","zip_code":"02330","name":"Saint-Eugène","slug":"saint eugene","gps_lat":49.01716381818181,"gps_lng":3.52255745454546},{"id":1067,"department_code":"02","insee_code":"02678","zip_code":"02340","name":"Sainte-Geneviève","slug":"sainte genevieve","gps_lat":49.72377528301886,"gps_lng":4.07514433962264},{"id":1068,"department_code":"02","insee_code":"02679","zip_code":"02810","name":"Saint-Gengoulph","slug":"saint gengoulph","gps_lat":49.11592285714284,"gps_lng":3.21178797619048},{"id":1069,"department_code":"02","insee_code":"02680","zip_code":"02410","name":"Saint-Gobain","slug":"saint gobain","gps_lat":49.59781070769228,"gps_lng":3.39225138461539},{"id":1070,"department_code":"02","insee_code":"02681","zip_code":"02140","name":"Saint-Gobert","slug":"saint gobert","gps_lat":49.80584999999999,"gps_lng":3.83446627118644},{"id":1071,"department_code":"02","insee_code":"02682","zip_code":"02220","name":"Saint-Mard","slug":"saint mard","gps_lat":49.38517975609756,"gps_lng":3.58661731707317},{"id":1072,"department_code":"02","insee_code":"02683","zip_code":"02110","name":"Saint-Martin-Rivière","slug":"saint martin riviere","gps_lat":50.04396453488375,"gps_lng":3.54685569767442},{"id":1073,"department_code":"02","insee_code":"02684","zip_code":"02830","name":"Saint-Michel","slug":"saint michel","gps_lat":49.92266702898552,"gps_lng":4.16296326086956},{"id":1074,"department_code":"02","insee_code":"02685","zip_code":"02410","name":"Saint-Nicolas-aux-Bois","slug":"saint nicolas aux bois","gps_lat":49.60209514705879,"gps_lng":3.43443},{"id":1075,"department_code":"02","insee_code":"02686","zip_code":"02300","name":"Saint-Paul-aux-Bois","slug":"saint paul aux bois","gps_lat":49.54262854700854,"gps_lng":3.20254153846154},{"id":1076,"department_code":"02","insee_code":"02687","zip_code":"02600","name":"Saint-Pierre-Aigle","slug":"saint pierre aigle","gps_lat":49.3160924590164,"gps_lng":3.19443442622951},{"id":1077,"department_code":"02","insee_code":"02688","zip_code":"02140","name":"Saint-Pierre-lès-Franqueville","slug":"saint pierre les franqueville","gps_lat":49.82414702702702,"gps_lng":3.81435891891892},{"id":1078,"department_code":"02","insee_code":"02689","zip_code":"02250","name":"Saint-Pierremont","slug":"saint pierremont","gps_lat":49.71850794392522,"gps_lng":3.87801560747664},{"id":1079,"department_code":"02","insee_code":"02690","zip_code":"02350","name":"Sainte-Preuve","slug":"sainte preuve","gps_lat":49.61543000000001,"gps_lng":3.9095644827586202},{"id":1080,"department_code":"02","insee_code":"02691","zip_code":"02100","name":"Saint-Quentin","slug":"saint quentin","gps_lat":49.84634779661018,"gps_lng":3.28846293785311},{"id":1081,"department_code":"02","insee_code":"02693","zip_code":"02210","name":"Saint-Rémy-Blanzy","slug":"saint remy blanzy","gps_lat":49.2465351396648,"gps_lng":3.30907849162011},{"id":1082,"department_code":"02","insee_code":"02694","zip_code":"02640","name":"Saint-Simon","slug":"saint simon","gps_lat":49.7459483870968,"gps_lng":3.17871483870968},{"id":1083,"department_code":"02","insee_code":"02695","zip_code":"02220","name":"Saint-Thibaut","slug":"saint thibaut","gps_lat":49.29193323076922,"gps_lng":3.61670569230769},{"id":1084,"department_code":"02","insee_code":"02696","zip_code":"02820","name":"Saint-Thomas","slug":"saint thomas","gps_lat":49.49957551020407,"gps_lng":3.8202587755102},{"id":1085,"department_code":"02","insee_code":"02697","zip_code":"02840","name":"Samoussy","slug":"samoussy","gps_lat":49.59437747572818,"gps_lng":3.74008126213592},{"id":1086,"department_code":"02","insee_code":"02698","zip_code":"02880","name":"Sancy-les-Cheminots","slug":"sancy les cheminots","gps_lat":49.43712545454545,"gps_lng":3.47889704545455},{"id":1087,"department_code":"02","insee_code":"02699","zip_code":"02130","name":"Saponay","slug":"saponay","gps_lat":49.2118672,"gps_lng":3.48711946666667},{"id":1088,"department_code":"02","insee_code":"02701","zip_code":"02310","name":"Saulchery","slug":"saulchery","gps_lat":48.98233523809524,"gps_lng":3.31093416666667},{"id":1089,"department_code":"02","insee_code":"02702","zip_code":"02590","name":"Savy","slug":"savy","gps_lat":49.83528379310346,"gps_lng":3.19533965517241},{"id":1090,"department_code":"02","insee_code":"02703","zip_code":"02110","name":"Seboncourt","slug":"seboncourt","gps_lat":49.9598750793651,"gps_lng":3.49063325396825},{"id":1091,"department_code":"02","insee_code":"02704","zip_code":"02300","name":"Selens","slug":"selens","gps_lat":49.49922928571429,"gps_lng":3.20812833333333},{"id":1093,"department_code":"02","insee_code":"02706","zip_code":"02200","name":"Septmonts","slug":"septmonts","gps_lat":49.33407432835818,"gps_lng":3.35861343283582},{"id":1094,"department_code":"02","insee_code":"02707","zip_code":"02410","name":"Septvaux","slug":"septvaux","gps_lat":49.56851712500001,"gps_lng":3.3731225},{"id":1095,"department_code":"02","insee_code":"02708","zip_code":"02420","name":"Sequehart","slug":"sequehart","gps_lat":49.9327765116279,"gps_lng":3.34266523255814},{"id":1096,"department_code":"02","insee_code":"02709","zip_code":"02110","name":"Serain","slug":"serain","gps_lat":50.02949174603177,"gps_lng":3.36226555555556},{"id":1097,"department_code":"02","insee_code":"02710","zip_code":"02790","name":"Seraucourt-le-Grand","slug":"seraucourt le grand","gps_lat":49.78236516393444,"gps_lng":3.21914573770492},{"id":1098,"department_code":"02","insee_code":"02711","zip_code":"02220","name":"Serches","slug":"serches","gps_lat":49.33604346153845,"gps_lng":3.44428884615384},{"id":1099,"department_code":"02","insee_code":"02712","zip_code":"02130","name":"Sergy","slug":"sergy","gps_lat":49.1856026724138,"gps_lng":3.56715810344828},{"id":1100,"department_code":"02","insee_code":"02713","zip_code":"02130","name":"Seringes-et-Nesles","slug":"seringes et nesles","gps_lat":49.21157447368424,"gps_lng":3.5665239473684203},{"id":1101,"department_code":"02","insee_code":"02714","zip_code":"02220","name":"Sermoise","slug":"sermoise","gps_lat":49.37169806451613,"gps_lng":3.44334935483871},{"id":1102,"department_code":"02","insee_code":"02715","zip_code":"02160","name":"Serval","slug":"serval","gps_lat":49.35352655172414,"gps_lng":3.68605965517241},{"id":1103,"department_code":"02","insee_code":"02716","zip_code":"02700","name":"Servais","slug":"servais","gps_lat":49.61867514285714,"gps_lng":3.34428828571429},{"id":1104,"department_code":"02","insee_code":"02717","zip_code":"02240","name":"Séry-lès-Mézières","slug":"sery les mezieres","gps_lat":49.76648494382024,"gps_lng":3.4149295505618},{"id":1105,"department_code":"02","insee_code":"02718","zip_code":"02460","name":"Silly-la-Poterie","slug":"silly la poterie","gps_lat":49.19673110091743,"gps_lng":3.15152467889908},{"id":1106,"department_code":"02","insee_code":"02719","zip_code":"02300","name":"Sinceny","slug":"sinceny","gps_lat":49.59401992063492,"gps_lng":3.2655546031746},{"id":1107,"department_code":"02","insee_code":"02720","zip_code":"02150","name":"Sissonne","slug":"sissonne","gps_lat":49.56509111842102,"gps_lng":3.92444296052631},{"id":1108,"department_code":"02","insee_code":"02721","zip_code":"02240","name":"Sissy","slug":"sissy","gps_lat":49.80912709183674,"gps_lng":3.42871632653061},{"id":1109,"department_code":"02","insee_code":"02722","zip_code":"02200","name":"Soissons","slug":"soissons","gps_lat":49.37575836065577,"gps_lng":3.32972516393443},{"id":1110,"department_code":"02","insee_code":"02723","zip_code":"02340","name":"Soize","slug":"soize","gps_lat":49.69800015624999,"gps_lng":4.08384625},{"id":1111,"department_code":"02","insee_code":"02724","zip_code":"02470","name":"Sommelans","slug":"sommelans","gps_lat":49.14000706896551,"gps_lng":3.28674965517241},{"id":1112,"department_code":"02","insee_code":"02725","zip_code":"02260","name":"Sommeron","slug":"sommeron","gps_lat":49.95527724137933,"gps_lng":3.95211603448276},{"id":1113,"department_code":"02","insee_code":"02726","zip_code":"02480","name":"Sommette-Eaucourt","slug":"sommette eaucourt","gps_lat":49.72985345238095,"gps_lng":3.11532845238095},{"id":1114,"department_code":"02","insee_code":"02727","zip_code":"02270","name":"Sons-et-Ronchères","slug":"sons et roncheres","gps_lat":49.76735355140188,"gps_lng":3.6714857009345803},{"id":1115,"department_code":"02","insee_code":"02728","zip_code":"02580","name":"Sorbais","slug":"sorbais","gps_lat":49.91072211009175,"gps_lng":3.8807744954128403},{"id":1116,"department_code":"02","insee_code":"02729","zip_code":"02600","name":"Soucy","slug":"soucy","gps_lat":49.32406046153845,"gps_lng":3.12560815384615},{"id":1117,"department_code":"02","insee_code":"02730","zip_code":"02160","name":"Soupir","slug":"soupir","gps_lat":49.40973752688169,"gps_lng":3.60443903225806},{"id":1119,"department_code":"02","insee_code":"02732","zip_code":"02240","name":"Surfontaine","slug":"surfontaine","gps_lat":49.74785204081633,"gps_lng":3.48080530612245},{"id":1120,"department_code":"02","insee_code":"02733","zip_code":"02320","name":"Suzy","slug":"suzy","gps_lat":49.55246301204819,"gps_lng":3.46687891566265},{"id":1432,"department_code":"03","insee_code":"03217","zip_code":"03170","name":"Saint-Angel","slug":"saint angel","gps_lat":46.35039350000003,"gps_lng":2.69030945454546},{"id":1433,"department_code":"03","insee_code":"03218","zip_code":"03160","name":"Saint-Aubin-le-Monial","slug":"saint aubin le monial","gps_lat":46.5350575464684,"gps_lng":2.99604066914498},{"id":1434,"department_code":"03","insee_code":"03219","zip_code":"03390","name":"Saint-Bonnet-de-Four","slug":"saint bonnet de four","gps_lat":46.31442018181818,"gps_lng":2.90647915151515},{"id":1435,"department_code":"03","insee_code":"03220","zip_code":"03800","name":"Saint-Bonnet-de-Rochefort","slug":"saint bonnet de rochefort","gps_lat":46.14861352941178,"gps_lng":3.1388643697479},{"id":1436,"department_code":"03","insee_code":"03221","zip_code":"03360","name":"Saint-Bonnet-Tronçais","slug":"saint bonnet troncais","gps_lat":46.67121040000002,"gps_lng":2.6946874},{"id":1437,"department_code":"03","insee_code":"03222","zip_code":"03190","name":"Saint-Caprais","slug":"saint caprais","gps_lat":46.54361891509433,"gps_lng":2.73969537735849},{"id":1438,"department_code":"03","insee_code":"03223","zip_code":"03120","name":"Saint-Christophe","slug":"saint christophe","gps_lat":46.16201546666668,"gps_lng":3.5827998},{"id":1439,"department_code":"03","insee_code":"03224","zip_code":"03250","name":"Saint-Clément","slug":"saint clement","gps_lat":46.05629665441177,"gps_lng":3.72397779411765},{"id":1440,"department_code":"03","insee_code":"03225","zip_code":"03370","name":"Saint-Désiré","slug":"saint desire","gps_lat":46.51233837078652,"gps_lng":2.47622247191011},{"id":1441,"department_code":"03","insee_code":"03226","zip_code":"03130","name":"Saint-Didier-en-Donjon","slug":"saint didier en donjon","gps_lat":46.38354895480225,"gps_lng":3.87069889830509},{"id":1442,"department_code":"03","insee_code":"03227","zip_code":"03110","name":"Saint-Didier-la-Forêt","slug":"saint didier la foret","gps_lat":46.23308608974362,"gps_lng":3.33674032051282},{"id":1443,"department_code":"03","insee_code":"03228","zip_code":"03370","name":"Saint-Éloy-d'Allier","slug":"saint eloy d allier","gps_lat":46.49343114942529,"gps_lng":2.35133011494253},{"id":1444,"department_code":"03","insee_code":"03229","zip_code":"03400","name":"Saint-Ennemond","slug":"saint ennemond","gps_lat":46.68349836257311,"gps_lng":3.40321830409357},{"id":1445,"department_code":"03","insee_code":"03230","zip_code":"03300","name":"Saint-Étienne-de-Vicq","slug":"saint etienne de vicq","gps_lat":46.17246995515697,"gps_lng":3.53307278026906},{"id":1446,"department_code":"03","insee_code":"03231","zip_code":"03420","name":"Saint-Fargeol","slug":"saint fargeol","gps_lat":46.13293371681416,"gps_lng":2.62808123893805},{"id":1447,"department_code":"03","insee_code":"03232","zip_code":"03260","name":"Saint-Félix","slug":"saint felix","gps_lat":46.22835317073171,"gps_lng":3.47624548780488},{"id":1448,"department_code":"03","insee_code":"03233","zip_code":"03310","name":"Saint-Genest","slug":"saint genest","gps_lat":46.26433987951808,"gps_lng":2.60328060240964},{"id":1449,"department_code":"03","insee_code":"03234","zip_code":"03340","name":"Saint-Gérand-de-Vaux","slug":"saint gerand de vaux","gps_lat":46.38866775000002,"gps_lng":3.4197378},{"id":1450,"department_code":"03","insee_code":"03235","zip_code":"03150","name":"Saint-Gérand-le-Puy","slug":"saint gerand le puy","gps_lat":46.26498602209944,"gps_lng":3.51066364640884},{"id":1451,"department_code":"03","insee_code":"03236","zip_code":"03260","name":"Saint-Germain-des-Fossés","slug":"saint germain des fosses","gps_lat":46.19612214285714,"gps_lng":3.43060392857143},{"id":1452,"department_code":"03","insee_code":"03237","zip_code":"03140","name":"Saint-Germain-de-Salles","slug":"saint germain de salles","gps_lat":46.18726568627451,"gps_lng":3.22143117647059},{"id":1453,"department_code":"03","insee_code":"03238","zip_code":"03440","name":"Saint-Hilaire","slug":"saint hilaire","gps_lat":46.48532751219511,"gps_lng":3.01580648780488},{"id":1454,"department_code":"03","insee_code":"03239","zip_code":"03130","name":"Saint-Léger-sur-Vouzance","slug":"saint leger sur vouzance","gps_lat":46.40348787037034,"gps_lng":3.93497189814815},{"id":1455,"department_code":"03","insee_code":"03240","zip_code":"03220","name":"Saint-Léon","slug":"saint leon","gps_lat":46.40992079999997,"gps_lng":3.6872743076923},{"id":1456,"department_code":"03","insee_code":"03241","zip_code":"03160","name":"Saint-Léopardin-d'Augy","slug":"saint leopardin d augy","gps_lat":46.69099268867927,"gps_lng":3.1123545754717},{"id":1457,"department_code":"03","insee_code":"03242","zip_code":"03150","name":"Saint-Loup","slug":"saint loup","gps_lat":46.35483971428572,"gps_lng":3.38677614285714},{"id":1458,"department_code":"03","insee_code":"03243","zip_code":"03390","name":"Saint-Marcel-en-Murat","slug":"saint marcel en murat","gps_lat":46.32385181318681,"gps_lng":3.00928131868132},{"id":1459,"department_code":"03","insee_code":"03244","zip_code":"03420","name":"Saint-Marcel-en-Marcillat","slug":"saint marcel en marcillat","gps_lat":46.15066892307694,"gps_lng":2.58135715384615},{"id":1460,"department_code":"03","insee_code":"03245","zip_code":"03230","name":"Saint-Martin-des-Lais","slug":"saint martin des lais","gps_lat":46.67240918699184,"gps_lng":3.65681138211382},{"id":1461,"department_code":"03","insee_code":"03246","zip_code":"03380","name":"Saint-Martinien","slug":"saint martinien","gps_lat":46.32867914893618,"gps_lng":2.43834886524823},{"id":1462,"department_code":"03","insee_code":"03247","zip_code":"03210","name":"Saint-Menoux","slug":"saint menoux","gps_lat":46.58434709090908,"gps_lng":3.14329831818182},{"id":1463,"department_code":"03","insee_code":"03248","zip_code":"03250","name":"Saint-Nicolas-des-Biefs","slug":"saint nicolas des biefs","gps_lat":46.05907986928106,"gps_lng":3.79643098039216},{"id":1464,"department_code":"03","insee_code":"03249","zip_code":"03370","name":"Saint-Palais","slug":"saint palais","gps_lat":46.43307857142859,"gps_lng":2.29573333333333},{"id":1465,"department_code":"03","insee_code":"03250","zip_code":"42620","name":"Saint-Pierre-Laval","slug":"saint pierre laval","gps_lat":46.19156259668508,"gps_lng":3.76817569060773},{"id":1466,"department_code":"03","insee_code":"03251","zip_code":"03160","name":"Saint-Plaisir","slug":"saint plaisir","gps_lat":46.63337775000003,"gps_lng":2.96285266666667},{"id":1467,"department_code":"03","insee_code":"03252","zip_code":"03110","name":"Saint-Pont","slug":"saint pont","gps_lat":46.15605808333333,"gps_lng":3.2985255},{"id":1468,"department_code":"03","insee_code":"03253","zip_code":"03290","name":"Saint-Pourçain-sur-Besbre","slug":"saint pourcain sur besbre","gps_lat":46.47851485294121,"gps_lng":3.6578058578431403},{"id":1469,"department_code":"03","insee_code":"03254","zip_code":"03500","name":"Saint-Pourçain-sur-Sioule","slug":"saint pourcain sur sioule","gps_lat":46.30291384236454,"gps_lng":3.29828275862069},{"id":1470,"department_code":"03","insee_code":"03255","zip_code":"03800","name":"Saint-Priest-d'Andelot","slug":"saint priest d andelot","gps_lat":46.07921827160494,"gps_lng":3.1541224691358},{"id":1471,"department_code":"03","insee_code":"03256","zip_code":"03390","name":"Saint-Priest-en-Murat","slug":"saint priest en murat","gps_lat":46.35952309999999,"gps_lng":2.90487965},{"id":1472,"department_code":"03","insee_code":"03257","zip_code":"03120","name":"Saint-Prix","slug":"saint prix","gps_lat":46.22346751879699,"gps_lng":3.64818624060151},{"id":1473,"department_code":"03","insee_code":"03258","zip_code":"03110","name":"Saint-Rémy-en-Rollat","slug":"saint remy en rollat","gps_lat":46.19161370689656,"gps_lng":3.38118672413793},{"id":1474,"department_code":"03","insee_code":"03259","zip_code":"03370","name":"Saint-Sauvier","slug":"saint sauvier","gps_lat":46.39184687943258,"gps_lng":2.32999957446808},{"id":1475,"department_code":"03","insee_code":"03260","zip_code":"03240","name":"Saint-Sornin","slug":"saint sornin","gps_lat":46.41207907692308,"gps_lng":3.00594930769231},{"id":1476,"department_code":"03","insee_code":"03261","zip_code":"03420","name":"Sainte-Thérence","slug":"sainte therence","gps_lat":46.24574254237289,"gps_lng":2.57330525423729},{"id":1477,"department_code":"03","insee_code":"03262","zip_code":"03410","name":"Saint-Victor","slug":"saint victor","gps_lat":46.39075870466323,"gps_lng":2.61449689119171},{"id":1478,"department_code":"03","insee_code":"03263","zip_code":"03220","name":"Saint-Voir","slug":"saint voir","gps_lat":46.40531909677421,"gps_lng":3.50491812903226},{"id":1479,"department_code":"03","insee_code":"03264","zip_code":"03270","name":"Saint-Yorre","slug":"saint yorre","gps_lat":46.06544723809523,"gps_lng":3.47102495238095},{"id":1480,"department_code":"03","insee_code":"03265","zip_code":"03470","name":"Saligny-sur-Roudon","slug":"saligny sur roudon","gps_lat":46.46402578093311,"gps_lng":3.7553868559837698},{"id":1481,"department_code":"03","insee_code":"03266","zip_code":"03150","name":"Sanssat","slug":"sanssat","gps_lat":46.25298706422019,"gps_lng":3.46830825688073},{"id":1482,"department_code":"03","insee_code":"03267","zip_code":"03500","name":"Saulcet","slug":"saulcet","gps_lat":46.33125064102565,"gps_lng":3.263365},{"id":1483,"department_code":"03","insee_code":"03268","zip_code":"03800","name":"Saulzet","slug":"saulzet","gps_lat":46.13906671232877,"gps_lng":3.22432493150685},{"id":1484,"department_code":"03","insee_code":"03269","zip_code":"03430","name":"Sauvagny","slug":"sauvagny","gps_lat":46.43141709090908,"gps_lng":2.79128248484848},{"id":1485,"department_code":"03","insee_code":"03270","zip_code":"03390","name":"Sazeret","slug":"sazeret","gps_lat":46.34324696428574,"gps_lng":2.96859577380952},{"id":1486,"department_code":"03","insee_code":"03271","zip_code":"03700","name":"Serbannes","slug":"serbannes","gps_lat":46.10356884816755,"gps_lng":3.35994507853403},{"id":1487,"department_code":"03","insee_code":"03272","zip_code":"03120","name":"Servilly","slug":"servilly","gps_lat":46.28144130434784,"gps_lng":3.5922477173913},{"id":1488,"department_code":"03","insee_code":"03273","zip_code":"03260","name":"Seuillet","slug":"seuillet","gps_lat":46.20505770833334,"gps_lng":3.46341052083333},{"id":1489,"department_code":"03","insee_code":"03274","zip_code":"03220","name":"Sorbier","slug":"sorbier","gps_lat":46.36548994845361,"gps_lng":3.66545144329897},{"id":1490,"department_code":"03","insee_code":"03275","zip_code":"03210","name":"Souvigny","slug":"souvigny","gps_lat":46.530125625,"gps_lng":3.18686363636364},{"id":1491,"department_code":"03","insee_code":"03276","zip_code":"03450","name":"Sussat","slug":"sussat","gps_lat":46.15456278260869,"gps_lng":3.05928330434783},{"id":1678,"department_code":"04","insee_code":"04173","zip_code":"04170","name":"Saint-André-les-Alpes","slug":"saint andre les alpes","gps_lat":43.96494399361023,"gps_lng":6.50023003194888},{"id":1679,"department_code":"04","insee_code":"04174","zip_code":"04240","name":"Saint-Benoît","slug":"saint benoit","gps_lat":43.96168461538463,"gps_lng":6.72218461538462},{"id":1680,"department_code":"04","insee_code":"04175","zip_code":"04110","name":"Sainte-Croix-à-Lauze","slug":"sainte croix a lauze","gps_lat":43.90079848484851,"gps_lng":5.61637878787879},{"id":1681,"department_code":"04","insee_code":"04176","zip_code":"04500","name":"Sainte-Croix-du-Verdon","slug":"sainte croix du verdon","gps_lat":43.76872070422534,"gps_lng":6.1413861971831},{"id":1683,"department_code":"04","insee_code":"04178","zip_code":"04230","name":"Saint-Étienne-les-Orgues","slug":"saint etienne les orgues","gps_lat":44.07468513333335,"gps_lng":5.77927586666666},{"id":1684,"department_code":"04","insee_code":"04179","zip_code":"04200","name":"Saint-Geniez","slug":"saint geniez","gps_lat":44.23378604938271,"gps_lng":6.05794921810699},{"id":1685,"department_code":"04","insee_code":"04180","zip_code":"04330","name":"Saint-Jacques","slug":"saint jacques","gps_lat":43.97949588235295,"gps_lng":6.37061764705882},{"id":1686,"department_code":"04","insee_code":"04181","zip_code":"04270","name":"Saint-Jeannet","slug":"saint jeannet","gps_lat":43.98172453201968,"gps_lng":6.11329886699508},{"id":1687,"department_code":"04","insee_code":"04182","zip_code":"04270","name":"Saint-Julien-d'Asse","slug":"saint julien d asse","gps_lat":43.9358544651163,"gps_lng":6.07898237209302},{"id":1688,"department_code":"04","insee_code":"04183","zip_code":"04170","name":"Saint-Julien-du-Verdon","slug":"saint julien du verdon","gps_lat":43.917081147541,"gps_lng":6.53987786885246},{"id":1689,"department_code":"04","insee_code":"04184","zip_code":"04410","name":"Saint-Jurs","slug":"saint jurs","gps_lat":43.89950182692307,"gps_lng":6.18970504807693},{"id":1690,"department_code":"04","insee_code":"04186","zip_code":"04500","name":"Saint-Laurent-du-Verdon","slug":"saint laurent du verdon","gps_lat":43.72299835443038,"gps_lng":6.07200759493671},{"id":1691,"department_code":"04","insee_code":"04187","zip_code":"04330","name":"Saint-Lions","slug":"saint lions","gps_lat":43.97762943396228,"gps_lng":6.40327820754717},{"id":1692,"department_code":"04","insee_code":"04188","zip_code":"04300","name":"Saint-Maime","slug":"saint maime","gps_lat":43.89902421568628,"gps_lng":5.80202715686274},{"id":1693,"department_code":"04","insee_code":"04189","zip_code":"04800","name":"Saint-Martin-de-Brômes","slug":"saint martin de bromes","gps_lat":43.77786827586207,"gps_lng":5.96695477011494},{"id":1694,"department_code":"04","insee_code":"04190","zip_code":"04300","name":"Saint-Martin-les-Eaux","slug":"saint martin les eaux","gps_lat":43.871869921875,"gps_lng":5.7413275},{"id":1695,"department_code":"04","insee_code":"04191","zip_code":"04140","name":"Saint-Martin-lès-Seyne","slug":"saint martin les seyne","gps_lat":44.38241819277108,"gps_lng":6.24770144578313},{"id":1696,"department_code":"04","insee_code":"04192","zip_code":"04870","name":"Saint-Michel-l'Observatoire","slug":"saint michel l observatoire","gps_lat":43.90994447619049,"gps_lng":5.72105323809524},{"id":1697,"department_code":"04","insee_code":"04193","zip_code":"04530","name":"Saint-Paul-sur-Ubaye","slug":"saint paul sur ubaye","gps_lat":44.55066215339233,"gps_lng":6.81068589970501},{"id":1698,"department_code":"04","insee_code":"04194","zip_code":"06260","name":"Saint-Pierre","slug":"saint pierre","gps_lat":43.91296588235295,"gps_lng":6.92507666666666},{"id":1699,"department_code":"04","insee_code":"04195","zip_code":"04400","name":"Saint-Pons","slug":"saint pons","gps_lat":44.4198583898305,"gps_lng":6.61256144067796},{"id":1700,"department_code":"04","insee_code":"04197","zip_code":"04220","name":"Sainte-Tulle","slug":"sainte tulle","gps_lat":43.78451770114942,"gps_lng":5.7582124137931},{"id":1701,"department_code":"04","insee_code":"04199","zip_code":"04200","name":"Saint-Vincent-sur-Jabron","slug":"saint vincent sur jabron","gps_lat":44.16906296153847,"gps_lng":5.74658642307692},{"id":1702,"department_code":"04","insee_code":"04200","zip_code":"04290","name":"Salignac","slug":"salignac","gps_lat":44.15378695652174,"gps_lng":5.98975891304348},{"id":1703,"department_code":"04","insee_code":"04201","zip_code":"04150","name":"Saumane","slug":"saumane","gps_lat":44.08136192771085,"gps_lng":5.6810486746988005},{"id":1704,"department_code":"04","insee_code":"04202","zip_code":"04320","name":"Sausses","slug":"sausses","gps_lat":44.00568999999999,"gps_lng":6.7964048979591904},{"id":1705,"department_code":"04","insee_code":"04203","zip_code":"04140","name":"Selonnet","slug":"selonnet","gps_lat":44.36835425531913,"gps_lng":6.28718510638298},{"id":1706,"department_code":"04","insee_code":"04204","zip_code":"04270","name":"Senez","slug":"senez","gps_lat":43.9484962,"gps_lng":6.1739116},{"id":1707,"department_code":"04","insee_code":"04204","zip_code":"04330","name":"Senez","slug":"senez","gps_lat":43.914274,"gps_lng":6.406926},{"id":1708,"department_code":"04","insee_code":"04205","zip_code":"04140","name":"Seyne","slug":"seyne","gps_lat":44.33185335260117,"gps_lng":6.38594520231214},{"id":1709,"department_code":"04","insee_code":"04206","zip_code":"04300","name":"Sigonce","slug":"sigonce","gps_lat":44.00151626865669,"gps_lng":5.85489925373134},{"id":1710,"department_code":"04","insee_code":"04207","zip_code":"04200","name":"Sigoyer","slug":"sigoyer","gps_lat":44.32247864999996,"gps_lng":5.9627795},{"id":1711,"department_code":"04","insee_code":"04208","zip_code":"04150","name":"Simiane-la-Rotonde","slug":"simiane la rotonde","gps_lat":43.99079402298849,"gps_lng":5.56103557471264},{"id":1712,"department_code":"04","insee_code":"04209","zip_code":"04200","name":"Sisteron","slug":"sisteron","gps_lat":44.19983448818896,"gps_lng":5.93365881889764},{"id":1713,"department_code":"04","insee_code":"04210","zip_code":"04120","name":"Soleilhas","slug":"soleilhas","gps_lat":43.86679847682118,"gps_lng":6.68301748344371},{"id":1714,"department_code":"04","insee_code":"04211","zip_code":"04290","name":"Sourribes","slug":"sourribes","gps_lat":44.15693130841122,"gps_lng":6.04464607476636},{"id":1853,"department_code":"05","insee_code":"05128","zip_code":"05200","name":"Saint-André-d'Embrun","slug":"saint andre d embrun","gps_lat":44.58427181372548,"gps_lng":6.56697421568627},{"id":1854,"department_code":"05","insee_code":"05129","zip_code":"05150","name":"Saint-André-de-Rosans","slug":"saint andre de rosans","gps_lat":44.36352432773108,"gps_lng":5.5233581512605},{"id":1855,"department_code":"05","insee_code":"05130","zip_code":"05160","name":"Saint-Apollinaire","slug":"saint apollinaire","gps_lat":44.55048155963305,"gps_lng":6.3603643119266},{"id":1856,"department_code":"05","insee_code":"05131","zip_code":"05400","name":"Saint-Auban-d'Oze","slug":"saint auban d oze","gps_lat":44.48779790209789,"gps_lng":5.84880762237762},{"id":1857,"department_code":"05","insee_code":"05132","zip_code":"05500","name":"Saint-Bonnet-en-Champsaur","slug":"saint bonnet en champsaur","gps_lat":44.70194392045456,"gps_lng":6.08599727272727},{"id":1858,"department_code":"05","insee_code":"05133","zip_code":"05330","name":"Saint-Chaffrey","slug":"saint chaffrey","gps_lat":44.93316957264958,"gps_lng":6.60409273504273},{"id":1859,"department_code":"05","insee_code":"05134","zip_code":"05600","name":"Saint-Clément-sur-Durance","slug":"saint clement sur durance","gps_lat":44.65147898648649,"gps_lng":6.55363932432432},{"id":1860,"department_code":"05","insee_code":"05135","zip_code":"05700","name":"Sainte-Colombe","slug":"sainte colombe","gps_lat":44.29122111940299,"gps_lng":5.66621604477612},{"id":1861,"department_code":"05","insee_code":"05136","zip_code":"05600","name":"Saint-Crépin","slug":"saint crepin","gps_lat":44.72171835365853,"gps_lng":6.62803658536585},{"id":1863,"department_code":"05","insee_code":"05140","zip_code":"05130","name":"Saint-Étienne-le-Laus","slug":"saint etienne le laus","gps_lat":44.50889301724137,"gps_lng":6.16196215517241},{"id":1864,"department_code":"05","insee_code":"05142","zip_code":"05800","name":"Saint-Firmin","slug":"saint firmin","gps_lat":44.79288572649573,"gps_lng":6.0194852991453},{"id":1865,"department_code":"05","insee_code":"05144","zip_code":"05800","name":"Saint-Jacques-en-Valgodemard","slug":"saint jacques en valgodemard","gps_lat":44.77383604395604,"gps_lng":6.06368494505495},{"id":1866,"department_code":"05","insee_code":"05145","zip_code":"05260","name":"Saint-Jean-Saint-Nicolas","slug":"saint jean saint nicolas","gps_lat":44.67015306250001,"gps_lng":6.2244041875},{"id":1867,"department_code":"05","insee_code":"05146","zip_code":"05140","name":"Saint-Julien-en-Beauchêne","slug":"saint julien en beauchene","gps_lat":44.62846829710146,"gps_lng":5.72168492753623},{"id":1868,"department_code":"05","insee_code":"05147","zip_code":"05500","name":"Saint-Julien-en-Champsaur","slug":"saint julien en champsaur","gps_lat":44.667496643835634,"gps_lng":6.13406780821917},{"id":1869,"department_code":"05","insee_code":"05148","zip_code":"05500","name":"Saint-Laurent-du-Cros","slug":"saint laurent du cros","gps_lat":44.63652876811594,"gps_lng":6.10934782608696},{"id":1870,"department_code":"05","insee_code":"05149","zip_code":"05260","name":"Saint-Léger-les-Mélèzes","slug":"saint leger les melezes","gps_lat":44.64493352272728,"gps_lng":6.20705636363637},{"id":1871,"department_code":"05","insee_code":"05151","zip_code":"05120","name":"Saint-Martin-de-Queyrières","slug":"saint martin de queyrieres","gps_lat":44.8413398941799,"gps_lng":6.57822423280423},{"id":1872,"department_code":"05","insee_code":"05152","zip_code":"05800","name":"Saint-Maurice-en-Valgodemard","slug":"saint maurice en valgodemard","gps_lat":44.79874751515152,"gps_lng":6.10946527272728},{"id":1873,"department_code":"05","insee_code":"05153","zip_code":"05260","name":"Saint-Michel-de-Chaillol","slug":"saint michel de chaillol","gps_lat":44.68082157232703,"gps_lng":6.16764484276729},{"id":1874,"department_code":"05","insee_code":"05154","zip_code":"05140","name":"Saint-Pierre-d'Argençon","slug":"saint pierre d argencon","gps_lat":44.51734483333336,"gps_lng":5.68763416666667},{"id":1875,"department_code":"05","insee_code":"05155","zip_code":"05300","name":"Saint-Pierre-Avez","slug":"saint pierre avez","gps_lat":44.24997946808512,"gps_lng":5.76478574468085},{"id":1876,"department_code":"05","insee_code":"05156","zip_code":"05200","name":"Saint-Sauveur","slug":"saint sauveur","gps_lat":44.53260264044942,"gps_lng":6.52279308988764},{"id":1877,"department_code":"05","insee_code":"05157","zip_code":"05350","name":"Saint-Véran","slug":"saint veran","gps_lat":44.68219958620688,"gps_lng":6.89289772413793},{"id":1879,"department_code":"05","insee_code":"05159","zip_code":"05300","name":"Saléon","slug":"saleon","gps_lat":44.32376882352941,"gps_lng":5.77162411764706},{"id":1880,"department_code":"05","insee_code":"05160","zip_code":"05300","name":"Salérans","slug":"salerans","gps_lat":44.24485921568626,"gps_lng":5.69991352941176},{"id":1884,"department_code":"05","insee_code":"05164","zip_code":"05160","name":"Savines-le-Lac","slug":"savines le lac","gps_lat":44.53544935344831,"gps_lng":6.38936275862069},{"id":1885,"department_code":"05","insee_code":"05165","zip_code":"05700","name":"Savournon","slug":"savournon","gps_lat":44.42455309859156,"gps_lng":5.79499248826291},{"id":1886,"department_code":"05","insee_code":"05166","zip_code":"05700","name":"Serres","slug":"serres","gps_lat":44.41605802547773,"gps_lng":5.71500611464968},{"id":1887,"department_code":"05","insee_code":"05168","zip_code":"05130","name":"Sigoyer","slug":"sigoyer","gps_lat":44.47706463087248,"gps_lng":5.9731840939597305},{"id":1888,"department_code":"05","insee_code":"05169","zip_code":"05150","name":"Sorbiers","slug":"sorbiers","gps_lat":44.35960817460318,"gps_lng":5.57132126984127},{"id":2021,"department_code":"06","insee_code":"06113","zip_code":"06500","name":"Sainte-Agnès","slug":"sainte agnes","gps_lat":43.8062989147287,"gps_lng":7.46274937984496},{"id":2022,"department_code":"06","insee_code":"06114","zip_code":"06730","name":"Saint-André-de-la-Roche","slug":"saint andre de la roche","gps_lat":43.746501,"gps_lng":7.287284875},{"id":2023,"department_code":"06","insee_code":"06115","zip_code":"06260","name":"Saint-Antonin","slug":"saint antonin","gps_lat":43.90844816666664,"gps_lng":6.97694966666667},{"id":2024,"department_code":"06","insee_code":"06116","zip_code":"06850","name":"Saint-Auban","slug":"saint auban","gps_lat":43.83180708695654,"gps_lng":6.74600178260869},{"id":2025,"department_code":"06","insee_code":"06117","zip_code":"06670","name":"Saint-Blaise","slug":"saint blaise","gps_lat":43.81536488549618,"gps_lng":7.23179694656489},{"id":2026,"department_code":"06","insee_code":"06118","zip_code":"06530","name":"Saint-Cézaire-sur-Siagne","slug":"saint cezaire sur siagne","gps_lat":43.6590421827411,"gps_lng":6.80031284263959},{"id":2027,"department_code":"06","insee_code":"06119","zip_code":"06660","name":"Saint-Dalmas-le-Selvage","slug":"saint dalmas le selvage","gps_lat":44.2877755156951,"gps_lng":6.84553394618834},{"id":2028,"department_code":"06","insee_code":"06120","zip_code":"06660","name":"Saint-Étienne-de-Tinée","slug":"saint etienne de tinee","gps_lat":44.25928893129768,"gps_lng":6.92801099236642},{"id":2029,"department_code":"06","insee_code":"06121","zip_code":"06230","name":"Saint-Jean-Cap-Ferrat","slug":"saint jean cap ferrat","gps_lat":43.68814100436681,"gps_lng":7.33259672489082},{"id":2030,"department_code":"06","insee_code":"06122","zip_code":"06640","name":"Saint-Jeannet","slug":"saint jeannet","gps_lat":43.75872630057807,"gps_lng":7.13865797687861},{"id":2031,"department_code":"06","insee_code":"06123","zip_code":"06700","name":"Saint-Laurent-du-Var","slug":"saint laurent du var","gps_lat":43.67840609589044,"gps_lng":7.17890150684931},{"id":2032,"department_code":"06","insee_code":"06124","zip_code":"06260","name":"Saint-Léger","slug":"saint leger","gps_lat":44.00040866666664,"gps_lng":6.8237092},{"id":2033,"department_code":"06","insee_code":"06125","zip_code":"06470","name":"Saint-Martin-d'Entraunes","slug":"saint martin d entraunes","gps_lat":44.14997716312057,"gps_lng":6.74340312056738},{"id":2034,"department_code":"06","insee_code":"06126","zip_code":"06670","name":"Saint-Martin-du-Var","slug":"saint martin du var","gps_lat":43.82023316455696,"gps_lng":7.20144860759494},{"id":2035,"department_code":"06","insee_code":"06127","zip_code":"06450","name":"Saint-Martin-Vésubie","slug":"saint martin vesubie","gps_lat":44.1000557894737,"gps_lng":7.30307488304094},{"id":2036,"department_code":"06","insee_code":"06128","zip_code":"06570","name":"Saint-Paul-de-Vence","slug":"saint paul de vence","gps_lat":43.69457675,"gps_lng":7.12328775},{"id":2037,"department_code":"06","insee_code":"06129","zip_code":"06420","name":"Saint-Sauveur-sur-Tinée","slug":"saint sauveur sur tinee","gps_lat":44.11175643617022,"gps_lng":7.11394632978723},{"id":2038,"department_code":"06","insee_code":"06130","zip_code":"06460","name":"Saint-Vallier-de-Thiey","slug":"saint vallier de thiey","gps_lat":43.69570231759657,"gps_lng":6.85360313304721},{"id":2039,"department_code":"06","insee_code":"06131","zip_code":"06910","name":"Sallagriffon","slug":"sallagriffon","gps_lat":43.87826295238096,"gps_lng":6.91281380952381},{"id":2040,"department_code":"06","insee_code":"06132","zip_code":"06540","name":"Saorge","slug":"saorge","gps_lat":43.99379856132074,"gps_lng":7.55230389150943},{"id":2041,"department_code":"06","insee_code":"06133","zip_code":"06470","name":"Sauze","slug":"sauze","gps_lat":44.08134657342656,"gps_lng":6.80686440559441},{"id":2042,"department_code":"06","insee_code":"06134","zip_code":"06750","name":"Séranon","slug":"seranon","gps_lat":43.76730375690607,"gps_lng":6.68106165745856},{"id":2043,"department_code":"06","insee_code":"06135","zip_code":"06910","name":"Sigale","slug":"sigale","gps_lat":43.87468265306121,"gps_lng":6.96456520408163},{"id":2044,"department_code":"06","insee_code":"06136","zip_code":"06380","name":"Sospel","slug":"sospel","gps_lat":43.88854673228339,"gps_lng":7.44252492125984},{"id":2045,"department_code":"06","insee_code":"06137","zip_code":"06530","name":"Spéracèdes","slug":"speracedes","gps_lat":43.65239316666668,"gps_lng":6.86137416666667},{"id":2270,"department_code":"07","insee_code":"07202","zip_code":"07260","name":"Sablières","slug":"sablieres","gps_lat":44.54389309523813,"gps_lng":4.06845198412698},{"id":2271,"department_code":"07","insee_code":"07203","zip_code":"07450","name":"Sagnes-et-Goudoulet","slug":"sagnes et goudoulet","gps_lat":44.80222788461539,"gps_lng":4.21566147435898},{"id":2272,"department_code":"07","insee_code":"07204","zip_code":"07320","name":"Saint-Agrève","slug":"saint agreve","gps_lat":44.99939283746557,"gps_lng":4.4105217630854},{"id":2273,"department_code":"07","insee_code":"07205","zip_code":"07790","name":"Saint-Alban-d'Ay","slug":"saint alban d ay","gps_lat":45.18362173913044,"gps_lng":4.63142847826087},{"id":2274,"department_code":"07","insee_code":"07206","zip_code":"07590","name":"Saint-Alban-en-Montagne","slug":"saint alban en montagne","gps_lat":44.70809061797753,"gps_lng":3.917765},{"id":2275,"department_code":"07","insee_code":"07207","zip_code":"07120","name":"Saint-Alban-Auriolles","slug":"saint alban auriolles","gps_lat":44.43512827586208,"gps_lng":4.29143917241379},{"id":2276,"department_code":"07","insee_code":"07208","zip_code":"07170","name":"Saint-Andéol-de-Berg","slug":"saint andeol de berg","gps_lat":44.53125887417214,"gps_lng":4.53591377483444},{"id":2277,"department_code":"07","insee_code":"07209","zip_code":"07160","name":"Saint-Andéol-de-Fourchades","slug":"saint andeol de fourchades","gps_lat":44.84465457746484,"gps_lng":4.29001781690141},{"id":2278,"department_code":"07","insee_code":"07210","zip_code":"07600","name":"Saint-Andéol-de-Vals","slug":"saint andeol de vals","gps_lat":44.69633025641023,"gps_lng":4.40665124542125},{"id":2279,"department_code":"07","insee_code":"07211","zip_code":"07460","name":"Saint-André-de-Cruzières","slug":"saint andre de cruzieres","gps_lat":44.32268173228347,"gps_lng":4.20725881889764},{"id":2280,"department_code":"07","insee_code":"07212","zip_code":"07690","name":"Saint-André-en-Vivarais","slug":"saint andre en vivarais","gps_lat":45.11493339552237,"gps_lng":4.4145272761194},{"id":2281,"department_code":"07","insee_code":"07213","zip_code":"07230","name":"Saint-André-Lachamp","slug":"saint andre lachamp","gps_lat":44.50799710144928,"gps_lng":4.15401526570048},{"id":2282,"department_code":"07","insee_code":"07214","zip_code":"07240","name":"Saint-Apollinaire-de-Rias","slug":"saint apollinaire de rias","gps_lat":44.91880813664596,"gps_lng":4.59107173913043},{"id":2283,"department_code":"07","insee_code":"07215","zip_code":"07160","name":"Saint-Barthélemy-le-Meil","slug":"saint barthelemy le meil","gps_lat":44.88286031007753,"gps_lng":4.47954434108527},{"id":2284,"department_code":"07","insee_code":"07216","zip_code":"07270","name":"Saint-Barthélemy-Grozon","slug":"saint barthelemy grozon","gps_lat":44.95976661375664,"gps_lng":4.65255402116402},{"id":2285,"department_code":"07","insee_code":"07217","zip_code":"07300","name":"Saint-Barthélemy-le-Plain","slug":"saint barthelemy le plain","gps_lat":45.04827338235292,"gps_lng":4.74985759803922},{"id":2286,"department_code":"07","insee_code":"07218","zip_code":"07270","name":"Saint-Basile","slug":"saint basile","gps_lat":44.94955021428571,"gps_lng":4.56097707142857},{"id":2287,"department_code":"07","insee_code":"07219","zip_code":"07210","name":"Saint-Bauzile","slug":"saint bauzile","gps_lat":44.67277871287128,"gps_lng":4.66263415841584},{"id":2288,"department_code":"07","insee_code":"07220","zip_code":"07160","name":"Saint-Christol","slug":"saint christol","gps_lat":44.86894675324674,"gps_lng":4.44455610389611},{"id":2289,"department_code":"07","insee_code":"07221","zip_code":"07800","name":"Saint-Cierge-la-Serre","slug":"saint cierge la serre","gps_lat":44.7919579787234,"gps_lng":4.67330808510638},{"id":2290,"department_code":"07","insee_code":"07222","zip_code":"07160","name":"Saint-Cierge-sous-le-Cheylard","slug":"saint cierge sous le cheylard","gps_lat":44.92598859813086,"gps_lng":4.45160037383178},{"id":2291,"department_code":"07","insee_code":"07223","zip_code":"07380","name":"Saint-Cirgues-de-Prades","slug":"saint cirgues de prades","gps_lat":44.62205662162162,"gps_lng":4.27586391891892},{"id":2292,"department_code":"07","insee_code":"07224","zip_code":"07510","name":"Saint-Cirgues-en-Montagne","slug":"saint cirgues en montagne","gps_lat":44.77002546666667,"gps_lng":4.08905271111111},{"id":2293,"department_code":"07","insee_code":"07225","zip_code":"07430","name":"Saint-Clair","slug":"saint clair","gps_lat":45.27805507042254,"gps_lng":4.68327873239437},{"id":2294,"department_code":"07","insee_code":"07226","zip_code":"07310","name":"Saint-Clément","slug":"saint clement","gps_lat":44.94809281609196,"gps_lng":4.26430045977011},{"id":2295,"department_code":"07","insee_code":"07227","zip_code":"07430","name":"Saint-Cyr","slug":"saint cyr","gps_lat":45.25497474576272,"gps_lng":4.73826508474576},{"id":2296,"department_code":"07","insee_code":"07228","zip_code":"07340","name":"Saint-Désirat","slug":"saint desirat","gps_lat":45.26065536585367,"gps_lng":4.78444585365854},{"id":2297,"department_code":"07","insee_code":"07229","zip_code":"07200","name":"Saint-Didier-sous-Aubenas","slug":"saint didier sous aubenas","gps_lat":44.60926047619045,"gps_lng":4.42251841269841},{"id":2298,"department_code":"07","insee_code":"07230","zip_code":"07200","name":"Saint-Étienne-de-Boulogne","slug":"saint etienne de boulogne","gps_lat":44.70152946902655,"gps_lng":4.46949495575221},{"id":2299,"department_code":"07","insee_code":"07231","zip_code":"07200","name":"Saint-Étienne-de-Fontbellon","slug":"saint etienne de fontbellon","gps_lat":44.59570086330937,"gps_lng":4.37814035971223},{"id":2300,"department_code":"07","insee_code":"07232","zip_code":"07590","name":"Saint-Étienne-de-Lugdarès","slug":"saint etienne de lugdares","gps_lat":44.6450058536585,"gps_lng":3.97160697560975},{"id":2301,"department_code":"07","insee_code":"07233","zip_code":"07190","name":"Saint-Étienne-de-Serre","slug":"saint etienne de serre","gps_lat":44.80367807228918,"gps_lng":4.52319963855422},{"id":2302,"department_code":"07","insee_code":"07234","zip_code":"07340","name":"Saint-Étienne-de-Valoux","slug":"saint etienne de valoux","gps_lat":45.243118125,"gps_lng":4.7804715625},{"id":2303,"department_code":"07","insee_code":"07235","zip_code":"07510","name":"Sainte-Eulalie","slug":"sainte eulalie","gps_lat":44.82356148809523,"gps_lng":4.18399535714286},{"id":2304,"department_code":"07","insee_code":"07236","zip_code":"07410","name":"Saint-Félicien","slug":"saint felicien","gps_lat":45.0745454,"gps_lng":4.60726385},{"id":2305,"department_code":"07","insee_code":"07237","zip_code":"07360","name":"Saint-Fortunat-sur-Eyrieux","slug":"saint fortunat sur eyrieux","gps_lat":44.83175581560284,"gps_lng":4.68440007092199},{"id":2306,"department_code":"07","insee_code":"07238","zip_code":"07230","name":"Saint-Genest-de-Beauzon","slug":"saint genest de beauzon","gps_lat":44.44441067226892,"gps_lng":4.18928033613445},{"id":2307,"department_code":"07","insee_code":"07239","zip_code":"07160","name":"Saint-Genest-Lachamp","slug":"saint genest lachamp","gps_lat":44.846943,"gps_lng":4.422978},{"id":2308,"department_code":"07","insee_code":"07239","zip_code":"07190","name":"Saint-Genest-Lachamp","slug":"saint genest lachamp","gps_lat":44.846943,"gps_lng":4.422978},{"id":2309,"department_code":"07","insee_code":"07240","zip_code":"07800","name":"Saint-Georges-les-Bains","slug":"saint georges les bains","gps_lat":44.86066274725276,"gps_lng":4.80476318681318},{"id":2310,"department_code":"07","insee_code":"07241","zip_code":"07170","name":"Saint-Germain","slug":"saint germain","gps_lat":44.55322983193281,"gps_lng":4.45072932773109},{"id":2311,"department_code":"07","insee_code":"07242","zip_code":"07580","name":"Saint-Gineis-en-Coiron","slug":"saint gineis en coiron","gps_lat":44.63411989847716,"gps_lng":4.53686868020305},{"id":2312,"department_code":"07","insee_code":"07243","zip_code":"07340","name":"Saint-Jacques-d'Atticieux","slug":"saint jacques d atticieux","gps_lat":45.33580653465347,"gps_lng":4.66890455445545},{"id":2313,"department_code":"07","insee_code":"07244","zip_code":"07240","name":"Saint-Jean-Chambre","slug":"saint jean chambre","gps_lat":44.90967411347515,"gps_lng":4.55779489361702},{"id":2314,"department_code":"07","insee_code":"07245","zip_code":"07300","name":"Saint-Jean-de-Muzols","slug":"saint jean de muzols","gps_lat":45.0766908411215,"gps_lng":4.7941393457944},{"id":2315,"department_code":"07","insee_code":"07247","zip_code":"07580","name":"Saint-Jean-le-Centenier","slug":"saint jean le centenier","gps_lat":44.58690957446808,"gps_lng":4.53833493617021},{"id":2316,"department_code":"07","insee_code":"07248","zip_code":"07160","name":"Saint-Jean-Roure","slug":"saint jean roure","gps_lat":44.9539446969697,"gps_lng":4.4164585606060704},{"id":2317,"department_code":"07","insee_code":"07249","zip_code":"07320","name":"Saint-Jeure-d'Andaure","slug":"saint jeure d andaure","gps_lat":45.0496526506024,"gps_lng":4.46526253012048},{"id":2318,"department_code":"07","insee_code":"07250","zip_code":"07290","name":"Saint-Jeure-d'Ay","slug":"saint jeure d ay","gps_lat":45.14511623655913,"gps_lng":4.71104956989247},{"id":2319,"department_code":"07","insee_code":"07251","zip_code":"07530","name":"Saint-Joseph-des-Bancs","slug":"saint joseph des bancs","gps_lat":44.74926523178809,"gps_lng":4.40984430463576},{"id":2320,"department_code":"07","insee_code":"07252","zip_code":"07310","name":"Saint-Julien-Boutières","slug":"saint julien boutieres","gps_lat":44.97055,"gps_lng":4.33918451923077},{"id":2321,"department_code":"07","insee_code":"07253","zip_code":"07190","name":"Saint-Julien-du-Gua","slug":"saint julien du gua","gps_lat":44.77074672222221,"gps_lng":4.45124461111111},{"id":2322,"department_code":"07","insee_code":"07254","zip_code":"07200","name":"Saint-Julien-du-Serre","slug":"saint julien du serre","gps_lat":44.6617876923077,"gps_lng":4.40248794871795},{"id":2323,"department_code":"07","insee_code":"07255","zip_code":"07000","name":"Saint-Julien-en-Saint-Alban","slug":"saint julien en saint alban","gps_lat":44.75681292307693,"gps_lng":4.69309820512821},{"id":2324,"department_code":"07","insee_code":"07256","zip_code":"07160","name":"Saint-Julien-Labrousse","slug":"saint julien labrousse","gps_lat":44.90522347593583,"gps_lng":4.51527385026738},{"id":2325,"department_code":"07","insee_code":"07257","zip_code":"07240","name":"Saint-Julien-le-Roux","slug":"saint julien le roux","gps_lat":44.868053,"gps_lng":4.6732395},{"id":2326,"department_code":"07","insee_code":"07258","zip_code":"07690","name":"Saint-Julien-Vocance","slug":"saint julien vocance","gps_lat":45.16653876190475,"gps_lng":4.4889219047619004},{"id":2327,"department_code":"07","insee_code":"07259","zip_code":"07700","name":"Saint-Just-d'Ardèche","slug":"saint just d ardeche","gps_lat":44.29572549019607,"gps_lng":4.61983441176471},{"id":2328,"department_code":"07","insee_code":"07260","zip_code":"07210","name":"Saint-Lager-Bressac","slug":"saint lager bressac","gps_lat":44.69108446808511,"gps_lng":4.72042645390071},{"id":2329,"department_code":"07","insee_code":"07261","zip_code":"07800","name":"Saint-Laurent-du-Pape","slug":"saint laurent du pape","gps_lat":44.82431615384616,"gps_lng":4.74246647435898},{"id":2330,"department_code":"07","insee_code":"07262","zip_code":"07590","name":"Saint-Laurent-les-Bains","slug":"saint laurent les bains","gps_lat":44.59334023904383,"gps_lng":3.9678990438247},{"id":2331,"department_code":"07","insee_code":"07263","zip_code":"07170","name":"Saint-Laurent-sous-Coiron","slug":"saint laurent sous coiron","gps_lat":44.66640229411765,"gps_lng":4.48871888235294},{"id":2332,"department_code":"07","insee_code":"07264","zip_code":"07700","name":"Saint-Marcel-d'Ardèche","slug":"saint marcel d ardeche","gps_lat":44.32478683720932,"gps_lng":4.5971605581395405},{"id":2333,"department_code":"07","insee_code":"07265","zip_code":"07100","name":"Saint-Marcel-lès-Annonay","slug":"saint marcel les annonay","gps_lat":45.29249599999999,"gps_lng":4.63296266666667},{"id":2334,"department_code":"07","insee_code":"07266","zip_code":"07140","name":"Sainte-Marguerite-Lafigère","slug":"sainte marguerite lafigere","gps_lat":44.48940345945948,"gps_lng":3.99672508108108},{"id":2335,"department_code":"07","insee_code":"07267","zip_code":"07310","name":"Saint-Martial","slug":"saint martial","gps_lat":44.86060970954359,"gps_lng":4.25552066390042},{"id":2336,"department_code":"07","insee_code":"07268","zip_code":"07700","name":"Saint-Martin-d'Ardèche","slug":"saint martin d ardeche","gps_lat":44.30853285714286,"gps_lng":4.57357714285714},{"id":2337,"department_code":"07","insee_code":"07269","zip_code":"07310","name":"Saint-Martin-de-Valamas","slug":"saint martin de valamas","gps_lat":44.93549057471265,"gps_lng":4.36537097701149},{"id":2338,"department_code":"07","insee_code":"07270","zip_code":"07400","name":"Saint-Martin-sur-Lavezon","slug":"saint martin sur lavezon","gps_lat":44.64295193548387,"gps_lng":4.65338021505376},{"id":2339,"department_code":"07","insee_code":"07272","zip_code":"07200","name":"Saint-Maurice-d'Ardèche","slug":"saint maurice d ardeche","gps_lat":44.51518705128205,"gps_lng":4.40814743589744},{"id":2340,"department_code":"07","insee_code":"07273","zip_code":"07170","name":"Saint-Maurice-d'Ibie","slug":"saint maurice d ibie","gps_lat":44.48197900900902,"gps_lng":4.48808779279279},{"id":2341,"department_code":"07","insee_code":"07274","zip_code":"07190","name":"Saint-Maurice-en-Chalencon","slug":"saint maurice en chalencon","gps_lat":44.85534707865168,"gps_lng":4.5819411235955},{"id":2342,"department_code":"07","insee_code":"07275","zip_code":"07260","name":"Saint-Mélany","slug":"saint melany","gps_lat":44.53682974522292,"gps_lng":4.12660222929936},{"id":2343,"department_code":"07","insee_code":"07276","zip_code":"07160","name":"Saint-Michel-d'Aurance","slug":"saint michel d aurance","gps_lat":44.89672896551723,"gps_lng":4.45836405172414},{"id":2344,"department_code":"07","insee_code":"07277","zip_code":"07200","name":"Saint-Michel-de-Boulogne","slug":"saint michel de boulogne","gps_lat":44.699284295302,"gps_lng":4.43361120805369},{"id":2345,"department_code":"07","insee_code":"07278","zip_code":"07360","name":"Saint-Michel-de-Chabrillanoux","slug":"saint michel de chabrillanoux","gps_lat":44.83858307692308,"gps_lng":4.61428438461538},{"id":2346,"department_code":"07","insee_code":"07279","zip_code":"07220","name":"Saint-Montan","slug":"saint montan","gps_lat":44.42990826347305,"gps_lng":4.61283580838323},{"id":2347,"department_code":"07","insee_code":"07280","zip_code":"07460","name":"Saint-Paul-le-Jeune","slug":"saint paul le jeune","gps_lat":44.33336209459462,"gps_lng":4.15796763513513},{"id":2348,"department_code":"07","insee_code":"07281","zip_code":"07130","name":"Saint-Péray","slug":"saint peray","gps_lat":44.93951403669722,"gps_lng":4.82531068807339},{"id":2349,"department_code":"07","insee_code":"07282","zip_code":"07450","name":"Saint-Pierre-de-Colombier","slug":"saint pierre de colombier","gps_lat":44.70906302816903,"gps_lng":4.26458985915493},{"id":2350,"department_code":"07","insee_code":"07283","zip_code":"07400","name":"Saint-Pierre-la-Roche","slug":"saint pierre la roche","gps_lat":44.65225723809523,"gps_lng":4.62119895238095},{"id":2351,"department_code":"07","insee_code":"07284","zip_code":"07140","name":"Saint-Pierre-Saint-Jean","slug":"saint pierre saint jean","gps_lat":44.47846619834712,"gps_lng":4.10471285123967},{"id":2352,"department_code":"07","insee_code":"07285","zip_code":"07520","name":"Saint-Pierre-sur-Doux","slug":"saint pierre sur doux","gps_lat":45.12248638888888,"gps_lng":4.48291366666667},{"id":2353,"department_code":"07","insee_code":"07286","zip_code":"07190","name":"Saint-Pierreville","slug":"saint pierreville","gps_lat":44.82238136125658,"gps_lng":4.48812722513089},{"id":2354,"department_code":"07","insee_code":"07287","zip_code":"07580","name":"Saint-Pons","slug":"saint pons","gps_lat":44.60222256038649,"gps_lng":4.57183661835749},{"id":2355,"department_code":"07","insee_code":"07288","zip_code":"07000","name":"Saint-Priest","slug":"saint priest","gps_lat":44.71595775147929,"gps_lng":4.54219159763314},{"id":2356,"department_code":"07","insee_code":"07289","zip_code":"07200","name":"Saint-Privat","slug":"saint privat","gps_lat":44.62985712871286,"gps_lng":4.42390277227723},{"id":2357,"department_code":"07","insee_code":"07290","zip_code":"07270","name":"Saint-Prix","slug":"saint prix","gps_lat":44.94598690058478,"gps_lng":4.50286801169591},{"id":2358,"department_code":"07","insee_code":"07291","zip_code":"07700","name":"Saint-Remèze","slug":"saint remeze","gps_lat":44.37709452914797,"gps_lng":4.49150798206278},{"id":2359,"department_code":"07","insee_code":"07292","zip_code":"07290","name":"Saint-Romain-d'Ay","slug":"saint romain d ay","gps_lat":45.16256173913046,"gps_lng":4.67693965217391},{"id":2360,"department_code":"07","insee_code":"07293","zip_code":"07130","name":"Saint-Romain-de-Lerps","slug":"saint romain de lerps","gps_lat":44.97732506172842,"gps_lng":4.79776679012346},{"id":2361,"department_code":"07","insee_code":"07294","zip_code":"07460","name":"Saint-Sauveur-de-Cruzières","slug":"saint sauveur de cruzieres","gps_lat":44.29655326923075,"gps_lng":4.25781519230769},{"id":2362,"department_code":"07","insee_code":"07295","zip_code":"07190","name":"Saint-Sauveur-de-Montagut","slug":"saint sauveur de montagut","gps_lat":44.8218041011236,"gps_lng":4.57288803370786},{"id":2363,"department_code":"07","insee_code":"07296","zip_code":"07200","name":"Saint-Sernin","slug":"saint sernin","gps_lat":44.5781344262295,"gps_lng":4.37800901639344},{"id":2364,"department_code":"07","insee_code":"07297","zip_code":"07440","name":"Saint-Sylvestre","slug":"saint sylvestre","gps_lat":44.98620876543208,"gps_lng":4.7511175308641995},{"id":2365,"department_code":"07","insee_code":"07298","zip_code":"07210","name":"Saint-Symphorien-sous-Chomérac","slug":"saint symphorien sous chomerac","gps_lat":44.72708504950494,"gps_lng":4.70787564356436},{"id":2366,"department_code":"07","insee_code":"07299","zip_code":"07290","name":"Saint-Symphorien-de-Mahun","slug":"saint symphorien de mahun","gps_lat":45.156470990991,"gps_lng":4.55647441441441},{"id":2367,"department_code":"07","insee_code":"07300","zip_code":"07220","name":"Saint-Thomé","slug":"saint thome","gps_lat":44.50541986754968,"gps_lng":4.61876264900663},{"id":2368,"department_code":"07","insee_code":"07301","zip_code":"07410","name":"Saint-Victor","slug":"saint victor","gps_lat":45.09130690476191,"gps_lng":4.6954025},{"id":2369,"department_code":"07","insee_code":"07302","zip_code":"07210","name":"Saint-Vincent-de-Barrès","slug":"saint vincent de barres","gps_lat":44.66129621848739,"gps_lng":4.70647638655462},{"id":2370,"department_code":"07","insee_code":"07303","zip_code":"07360","name":"Saint-Vincent-de-Durfort","slug":"saint vincent de durfort","gps_lat":44.79049844827583,"gps_lng":4.63768034482759},{"id":2371,"department_code":"07","insee_code":"07304","zip_code":"07150","name":"Salavas","slug":"salavas","gps_lat":44.3875311827957,"gps_lng":4.36184107526882},{"id":2373,"department_code":"07","insee_code":"07306","zip_code":"07120","name":"Sampzon","slug":"sampzon","gps_lat":44.41076024390244,"gps_lng":4.3322956097561},{"id":2374,"department_code":"07","insee_code":"07307","zip_code":"07110","name":"Sanilhac","slug":"sanilhac","gps_lat":44.53211191588786,"gps_lng":4.23223775700935},{"id":2375,"department_code":"07","insee_code":"07308","zip_code":"07370","name":"Sarras","slug":"sarras","gps_lat":45.18664202797202,"gps_lng":4.77877832167832},{"id":2376,"department_code":"07","insee_code":"07309","zip_code":"07290","name":"Satillieu","slug":"satillieu","gps_lat":45.14610114285713,"gps_lng":4.58764880952381},{"id":2377,"department_code":"07","insee_code":"07310","zip_code":"07430","name":"Savas","slug":"savas","gps_lat":45.30132160583942,"gps_lng":4.66404138686132},{"id":2378,"department_code":"07","insee_code":"07311","zip_code":"07400","name":"Sceautres","slug":"sceautres","gps_lat":44.6166697368421,"gps_lng":4.59879125},{"id":2379,"department_code":"07","insee_code":"07312","zip_code":"07610","name":"Sécheras","slug":"secheras","gps_lat":45.12980421052632,"gps_lng":4.77495280701754},{"id":2380,"department_code":"07","insee_code":"07313","zip_code":"07340","name":"Serrières","slug":"serrieres","gps_lat":45.31586564102566,"gps_lng":4.75846051282051},{"id":2381,"department_code":"07","insee_code":"07314","zip_code":"07240","name":"Silhac","slug":"silhac","gps_lat":44.87364009259259,"gps_lng":4.61650291666666},{"id":2383,"department_code":"07","insee_code":"07316","zip_code":"07130","name":"Soyons","slug":"soyons","gps_lat":44.89536723076922,"gps_lng":4.84951661538461},{"id":2751,"department_code":"08","insee_code":"08375","zip_code":"08110","name":"Sachy","slug":"sachy","gps_lat":49.66985539215685,"gps_lng":5.12863862745098},{"id":2752,"department_code":"08","insee_code":"08376","zip_code":"08110","name":"Sailly","slug":"sailly","gps_lat":49.602690729927,"gps_lng":5.1753700729927},{"id":2753,"department_code":"08","insee_code":"08377","zip_code":"08350","name":"Saint-Aignan","slug":"saint aignan","gps_lat":49.65809089285717,"gps_lng":4.85178017857143},{"id":2754,"department_code":"08","insee_code":"08378","zip_code":"08310","name":"Saint-Clément-à-Arnes","slug":"saint clement a arnes","gps_lat":49.30371569620253,"gps_lng":4.4333970886076},{"id":2755,"department_code":"08","insee_code":"08379","zip_code":"08310","name":"Saint-Étienne-à-Arnes","slug":"saint etienne a arnes","gps_lat":49.30914749999999,"gps_lng":4.52338365384615},{"id":2756,"department_code":"08","insee_code":"08380","zip_code":"08360","name":"Saint-Fergeux","slug":"saint fergeux","gps_lat":49.57580485714285,"gps_lng":4.19130219047619},{"id":2757,"department_code":"08","insee_code":"08381","zip_code":"08190","name":"Saint-Germainmont","slug":"saint germainmont","gps_lat":49.51066647058825,"gps_lng":4.13111494117647},{"id":2758,"department_code":"08","insee_code":"08382","zip_code":"08220","name":"Saint-Jean-aux-Bois","slug":"saint jean aux bois","gps_lat":49.72199319999997,"gps_lng":4.30783368},{"id":2759,"department_code":"08","insee_code":"08383","zip_code":"08250","name":"Saint-Juvin","slug":"saint juvin","gps_lat":49.33696759689921,"gps_lng":4.94411031007752},{"id":2760,"department_code":"08","insee_code":"08384","zip_code":"08130","name":"Saint-Lambert-et-Mont-de-Jeux","slug":"saint lambert et mont de jeux","gps_lat":49.49762337078656,"gps_lng":4.62210449438202},{"id":2761,"department_code":"08","insee_code":"08385","zip_code":"08090","name":"Saint-Laurent","slug":"saint laurent","gps_lat":49.75883119047619,"gps_lng":4.77584142857143},{"id":2762,"department_code":"08","insee_code":"08386","zip_code":"08300","name":"Saint-Loup-en-Champagne","slug":"saint loup en champagne","gps_lat":49.45457376623378,"gps_lng":4.21468792207792},{"id":2763,"department_code":"08","insee_code":"08387","zip_code":"08130","name":"Saint-Loup-Terrier","slug":"saint loup terrier","gps_lat":49.56883260606062,"gps_lng":4.61643484848484},{"id":2764,"department_code":"08","insee_code":"08388","zip_code":"08160","name":"Saint-Marceau","slug":"saint marceau","gps_lat":49.70778639175258,"gps_lng":4.71438412371134},{"id":2765,"department_code":"08","insee_code":"08389","zip_code":"08460","name":"Saint-Marcel","slug":"saint marcel","gps_lat":49.76843333333333,"gps_lng":4.56817481481481},{"id":2766,"department_code":"08","insee_code":"08390","zip_code":"08400","name":"Sainte-Marie","slug":"sainte marie","gps_lat":49.37047323943661,"gps_lng":4.67665605633803},{"id":2767,"department_code":"08","insee_code":"08391","zip_code":"08200","name":"Saint-Menges","slug":"saint menges","gps_lat":49.76037674418605,"gps_lng":4.92638581395349},{"id":2768,"department_code":"08","insee_code":"08392","zip_code":"08400","name":"Saint-Morel","slug":"saint morel","gps_lat":49.33893156249999,"gps_lng":4.697849609375},{"id":2769,"department_code":"08","insee_code":"08393","zip_code":"08310","name":"Saint-Pierre-à-Arnes","slug":"saint pierre a arnes","gps_lat":49.300185526315786,"gps_lng":4.45936},{"id":2770,"department_code":"08","insee_code":"08394","zip_code":"08240","name":"Saint-Pierremont","slug":"saint pierremont","gps_lat":49.4970916470588,"gps_lng":4.94461050980392},{"id":2771,"department_code":"08","insee_code":"08395","zip_code":"08430","name":"Saint-Pierre-sur-Vence","slug":"saint pierre sur vence","gps_lat":49.70303586666667,"gps_lng":4.68696933333333},{"id":2772,"department_code":"08","insee_code":"08396","zip_code":"08220","name":"Saint-Quentin-le-Petit","slug":"saint quentin le petit","gps_lat":49.58310064935065,"gps_lng":4.0747087012987},{"id":2773,"department_code":"08","insee_code":"08397","zip_code":"08300","name":"Saint-Remy-le-Petit","slug":"saint remy le petit","gps_lat":49.40506877192983,"gps_lng":4.23608842105263},{"id":2774,"department_code":"08","insee_code":"08398","zip_code":"08130","name":"Sainte-Vaubourg","slug":"sainte vaubourg","gps_lat":49.45765727272727,"gps_lng":4.59641772727273},{"id":2775,"department_code":"08","insee_code":"08399","zip_code":"08370","name":"Sapogne-sur-Marche","slug":"sapogne sur marche","gps_lat":49.59959184397165,"gps_lng":5.31373085106383},{"id":2776,"department_code":"08","insee_code":"08400","zip_code":"08160","name":"Sapogne-et-Feuchères","slug":"sapogne et feucheres","gps_lat":49.66120646551723,"gps_lng":4.79898681034482},{"id":2777,"department_code":"08","insee_code":"08401","zip_code":"08130","name":"Saulces-Champenoises","slug":"saulces champenoises","gps_lat":49.4496721495327,"gps_lng":4.51448906542056},{"id":2778,"department_code":"08","insee_code":"08402","zip_code":"08270","name":"Saulces-Monclin","slug":"saulces monclin","gps_lat":49.57273056994823,"gps_lng":4.51257585492228},{"id":2779,"department_code":"08","insee_code":"08403","zip_code":"08300","name":"Sault-lès-Rethel","slug":"sault les rethel","gps_lat":49.49233075949366,"gps_lng":4.35982873417722},{"id":2780,"department_code":"08","insee_code":"08404","zip_code":"08190","name":"Sault-Saint-Remy","slug":"sault saint remy","gps_lat":49.4284748076923,"gps_lng":4.16057019230769},{"id":2781,"department_code":"08","insee_code":"08405","zip_code":"08390","name":"Sauville","slug":"sauville","gps_lat":49.55243086206898,"gps_lng":4.79451873563218},{"id":2782,"department_code":"08","insee_code":"08406","zip_code":"08400","name":"Savigny-sur-Aisne","slug":"savigny sur aisne","gps_lat":49.36195488888889,"gps_lng":4.725192},{"id":2783,"department_code":"08","insee_code":"08407","zip_code":"08250","name":"Séchault","slug":"sechault","gps_lat":49.27531,"gps_lng":4.73809261538462},{"id":2784,"department_code":"08","insee_code":"08408","zip_code":"08150","name":"Sécheval","slug":"secheval","gps_lat":49.8618114782609,"gps_lng":4.66011156521739},{"id":2785,"department_code":"08","insee_code":"08409","zip_code":"08200","name":"Sedan","slug":"sedan","gps_lat":49.69680451612905,"gps_lng":4.92781006451613},{"id":2786,"department_code":"08","insee_code":"08410","zip_code":"08400","name":"Semide","slug":"semide","gps_lat":49.32310123376623,"gps_lng":4.58120707792208},{"id":2787,"department_code":"08","insee_code":"08411","zip_code":"08130","name":"Semuy","slug":"semuy","gps_lat":49.49689140845071,"gps_lng":4.66288774647887},{"id":2788,"department_code":"08","insee_code":"08412","zip_code":"08250","name":"Senuc","slug":"senuc","gps_lat":49.30464320197045,"gps_lng":4.84815822660099},{"id":2789,"department_code":"08","insee_code":"08413","zip_code":"08220","name":"Seraincourt","slug":"seraincourt","gps_lat":49.62330613861387,"gps_lng":4.19043168316832},{"id":2790,"department_code":"08","insee_code":"08415","zip_code":"08270","name":"Sery","slug":"sery","gps_lat":49.5889145121951,"gps_lng":4.35727067073171},{"id":2791,"department_code":"08","insee_code":"08416","zip_code":"08300","name":"Seuil","slug":"seuil","gps_lat":49.48011483606556,"gps_lng":4.45640352459016},{"id":2792,"department_code":"08","insee_code":"08417","zip_code":"08230","name":"Sévigny-la-Forêt","slug":"sevigny la foret","gps_lat":49.86870982905982,"gps_lng":4.47347461538462},{"id":2793,"department_code":"08","insee_code":"08418","zip_code":"08220","name":"Sévigny-Waleppe","slug":"sevigny waleppe","gps_lat":49.62133765151516,"gps_lng":4.08308196969697},{"id":2794,"department_code":"08","insee_code":"08419","zip_code":"08460","name":"Signy-l'Abbaye","slug":"signy l abbaye","gps_lat":49.69720200564971,"gps_lng":4.39599242937853},{"id":2795,"department_code":"08","insee_code":"08420","zip_code":"08380","name":"Signy-le-Petit","slug":"signy le petit","gps_lat":49.94201091445426,"gps_lng":4.28448241887906},{"id":2796,"department_code":"08","insee_code":"08421","zip_code":"08370","name":"Signy-Montlibert","slug":"signy montlibert","gps_lat":49.58175044943818,"gps_lng":5.3131302247191},{"id":2797,"department_code":"08","insee_code":"08422","zip_code":"08430","name":"Singly","slug":"singly","gps_lat":49.64588747899161,"gps_lng":4.71186512605042},{"id":2798,"department_code":"08","insee_code":"08424","zip_code":"08240","name":"Sommauthe","slug":"sommauthe","gps_lat":49.49798440559439,"gps_lng":4.98597160839161},{"id":2799,"department_code":"08","insee_code":"08425","zip_code":"08250","name":"Sommerance","slug":"sommerance","gps_lat":49.32473041237112,"gps_lng":4.99468505154639},{"id":2800,"department_code":"08","insee_code":"08426","zip_code":"08300","name":"Son","slug":"son","gps_lat":49.58244388235298,"gps_lng":4.27168505882353},{"id":2801,"department_code":"08","insee_code":"08427","zip_code":"08300","name":"Sorbon","slug":"sorbon","gps_lat":49.55627661290322,"gps_lng":4.37487459677419},{"id":2802,"department_code":"08","insee_code":"08428","zip_code":"08270","name":"Sorcy-Bauthémont","slug":"sorcy bauthemont","gps_lat":49.54450207999999,"gps_lng":4.54038144},{"id":2803,"department_code":"08","insee_code":"08429","zip_code":"08150","name":"Sormonne","slug":"sormonne","gps_lat":49.80841044444447,"gps_lng":4.56384933333334},{"id":2804,"department_code":"08","insee_code":"08430","zip_code":"08390","name":"Stonne","slug":"stonne","gps_lat":49.55036927536229,"gps_lng":4.92277608695652},{"id":2805,"department_code":"08","insee_code":"08431","zip_code":"08400","name":"Sugny","slug":"sugny","gps_lat":49.35574460869565,"gps_lng":4.66386147826087},{"id":2806,"department_code":"08","insee_code":"08432","zip_code":"08090","name":"Sury","slug":"sury","gps_lat":49.76493506329114,"gps_lng":4.61764670886076},{"id":2807,"department_code":"08","insee_code":"08433","zip_code":"08130","name":"Suzanne","slug":"suzanne","gps_lat":49.5195805645161,"gps_lng":4.63928112903226},{"id":2808,"department_code":"08","insee_code":"08434","zip_code":"08390","name":"Sy","slug":"sy","gps_lat":49.51254423529412,"gps_lng":4.87891729411765},{"id":3117,"department_code":"09","insee_code":"09253","zip_code":"09350","name":"Sabarat","slug":"sabarat","gps_lat":43.09667,"gps_lng":1.40141227272727},{"id":3118,"department_code":"09","insee_code":"09254","zip_code":"09100","name":"Saint-Amadou","slug":"saint amadou","gps_lat":43.11057547368424,"gps_lng":1.7131159999999999},{"id":3119,"department_code":"09","insee_code":"09255","zip_code":"09100","name":"Saint-Amans","slug":"saint amans","gps_lat":43.1584846153846,"gps_lng":1.54777553846154},{"id":3120,"department_code":"09","insee_code":"09256","zip_code":"09120","name":"Saint-Bauzeil","slug":"saint bauzeil","gps_lat":43.08231348484849,"gps_lng":1.5781977272727299},{"id":3121,"department_code":"09","insee_code":"09257","zip_code":"09230","name":"Sainte-Croix-Volvestre","slug":"sainte croix volvestre","gps_lat":43.12955274285713,"gps_lng":1.15931171428571},{"id":3122,"department_code":"09","insee_code":"09258","zip_code":"09120","name":"Saint-Félix-de-Rieutord","slug":"saint felix de rieutord","gps_lat":43.04236171428571,"gps_lng":1.66845242857143},{"id":3123,"department_code":"09","insee_code":"09259","zip_code":"09500","name":"Saint-Félix-de-Tournegat","slug":"saint felix de tournegat","gps_lat":43.12186438596491,"gps_lng":1.7614355263157901},{"id":3124,"department_code":"09","insee_code":"09260","zip_code":"09500","name":"Sainte-Foi","slug":"sainte foi","gps_lat":43.12526869565219,"gps_lng":1.91728304347826},{"id":3125,"department_code":"09","insee_code":"09261","zip_code":"09200","name":"Saint-Girons","slug":"saint girons","gps_lat":42.98020562874255,"gps_lng":1.1643597005988},{"id":3126,"department_code":"09","insee_code":"09262","zip_code":"09300","name":"Saint-Jean-d'Aigues-Vives","slug":"saint jean d aigues vives","gps_lat":42.91980830508475,"gps_lng":1.8701893220338999},{"id":3127,"department_code":"09","insee_code":"09263","zip_code":"09800","name":"Saint-Jean-du-Castillonnais","slug":"saint jean du castillonnais","gps_lat":42.94583835443037,"gps_lng":0.92766911392405},{"id":3128,"department_code":"09","insee_code":"09264","zip_code":"09000","name":"Saint-Jean-de-Verges","slug":"saint jean de verges","gps_lat":43.01216146551722,"gps_lng":1.6342411206896599},{"id":3129,"department_code":"09","insee_code":"09265","zip_code":"09100","name":"Saint-Jean-du-Falga","slug":"saint jean du falga","gps_lat":43.08706882352941,"gps_lng":1.62444647058824},{"id":3130,"department_code":"09","insee_code":"09266","zip_code":"09500","name":"Saint-Julien-de-Gras-Capou","slug":"saint julien de gras capou","gps_lat":43.03524177215188,"gps_lng":1.86010506329114},{"id":3131,"department_code":"09","insee_code":"09267","zip_code":"09800","name":"Saint-Lary","slug":"saint lary","gps_lat":42.90347651428573,"gps_lng":0.86826057142857},{"id":3132,"department_code":"09","insee_code":"09268","zip_code":"09190","name":"Saint-Lizier","slug":"saint lizier","gps_lat":42.99819437037037,"gps_lng":1.12692785185185},{"id":3133,"department_code":"09","insee_code":"09269","zip_code":"09000","name":"Saint-Martin-de-Caralp","slug":"saint martin de caralp","gps_lat":42.99214539325843,"gps_lng":1.5360504494382},{"id":3134,"department_code":"09","insee_code":"09270","zip_code":"09100","name":"Saint-Martin-d'Oydes","slug":"saint martin d oydes","gps_lat":43.16385967999999,"gps_lng":1.48635856},{"id":3135,"department_code":"09","insee_code":"09271","zip_code":"09100","name":"Saint-Michel","slug":"saint michel","gps_lat":43.1345485227273,"gps_lng":1.49909488636364},{"id":3136,"department_code":"09","insee_code":"09272","zip_code":"09000","name":"Saint-Paul-de-Jarrat","slug":"saint paul de jarrat","gps_lat":42.90031111111109,"gps_lng":1.66950944444444},{"id":3137,"department_code":"09","insee_code":"09273","zip_code":"09000","name":"Saint-Pierre-de-Rivière","slug":"saint pierre de riviere","gps_lat":42.96630510204081,"gps_lng":1.55490714285714},{"id":3138,"department_code":"09","insee_code":"09274","zip_code":"09500","name":"Saint-Quentin-la-Tour","slug":"saint quentin la tour","gps_lat":43.02928514492754,"gps_lng":1.90745123188406},{"id":3139,"department_code":"09","insee_code":"09275","zip_code":"09700","name":"Saint-Quirc","slug":"saint quirc","gps_lat":43.27962368421052,"gps_lng":1.50061768421053},{"id":3140,"department_code":"09","insee_code":"09276","zip_code":"09100","name":"Saint-Victor-Rouzaud","slug":"saint victor rouzaud","gps_lat":43.09037496598639,"gps_lng":1.54654523809524},{"id":3141,"department_code":"09","insee_code":"09277","zip_code":"09210","name":"Saint-Ybars","slug":"saint ybars","gps_lat":43.24048059210526,"gps_lng":1.39414736842105},{"id":3142,"department_code":"09","insee_code":"09279","zip_code":"09800","name":"Salsein","slug":"salsein","gps_lat":42.90413860000002,"gps_lng":1.0025132},{"id":3143,"department_code":"09","insee_code":"09280","zip_code":"09400","name":"Saurat","slug":"saurat","gps_lat":42.87710637583892,"gps_lng":1.50487067114094},{"id":3144,"department_code":"09","insee_code":"09281","zip_code":"09300","name":"Sautel","slug":"sautel","gps_lat":42.96816214285715,"gps_lng":1.8222485714285699},{"id":3145,"department_code":"09","insee_code":"09282","zip_code":"09700","name":"Saverdun","slug":"saverdun","gps_lat":43.21984936708862,"gps_lng":1.55396082278481},{"id":3146,"department_code":"09","insee_code":"09283","zip_code":"09110","name":"Savignac-les-Ormeaux","slug":"savignac les ormeaux","gps_lat":42.68110140845072,"gps_lng":1.7800045070422499},{"id":3147,"department_code":"09","insee_code":"09284","zip_code":"09120","name":"Ségura","slug":"segura","gps_lat":43.03413173076923,"gps_lng":1.69360442307692},{"id":3148,"department_code":"09","insee_code":"09285","zip_code":"09140","name":"Seix","slug":"seix","gps_lat":42.82329939849624,"gps_lng":1.15455285714286},{"id":3149,"department_code":"09","insee_code":"09286","zip_code":"09220","name":"Sem","slug":"sem","gps_lat":42.75550528301888,"gps_lng":1.52384735849057},{"id":3150,"department_code":"09","insee_code":"09287","zip_code":"09250","name":"Senconac","slug":"senconac","gps_lat":42.81155913793104,"gps_lng":1.7160225862069},{"id":3152,"department_code":"09","insee_code":"09290","zip_code":"09800","name":"Sentein","slug":"sentein","gps_lat":42.84102671641788,"gps_lng":0.92720119402985},{"id":3153,"department_code":"09","insee_code":"09291","zip_code":"09140","name":"Sentenac-d'Oust","slug":"sentenac d oust","gps_lat":42.86163472868215,"gps_lng":1.13564759689922},{"id":3154,"department_code":"09","insee_code":"09292","zip_code":"09240","name":"Sentenac-de-Sérou","slug":"sentenac de serou","gps_lat":42.95107375661374,"gps_lng":1.3918123809523801},{"id":3155,"department_code":"09","insee_code":"09293","zip_code":"09000","name":"Serres-sur-Arget","slug":"serres sur arget","gps_lat":42.96844981132078,"gps_lng":1.5018628930817601},{"id":3156,"department_code":"09","insee_code":"09294","zip_code":"09130","name":"Sieuras","slug":"sieuras","gps_lat":43.19126530864197,"gps_lng":1.34300716049383},{"id":3157,"department_code":"09","insee_code":"09295","zip_code":"09220","name":"Siguer","slug":"siguer","gps_lat":42.71117349056603,"gps_lng":1.5553423584905701},{"id":3158,"department_code":"09","insee_code":"09296","zip_code":"09310","name":"Sinsat","slug":"sinsat","gps_lat":42.80054859649121,"gps_lng":1.6602114035087698},{"id":3159,"department_code":"09","insee_code":"09297","zip_code":"09800","name":"Sor","slug":"sor","gps_lat":42.91926757575757,"gps_lng":1.01140303030303},{"id":3160,"department_code":"09","insee_code":"09298","zip_code":"09110","name":"Sorgeat","slug":"sorgeat","gps_lat":42.73642295454546,"gps_lng":1.8711161363636402},{"id":3161,"department_code":"09","insee_code":"09299","zip_code":"09140","name":"Soueix-Rogalle","slug":"soueix rogalle","gps_lat":42.89799630952382,"gps_lng":1.19519380952381},{"id":3162,"department_code":"09","insee_code":"09300","zip_code":"09000","name":"Soula","slug":"soula","gps_lat":42.93938110169491,"gps_lng":1.69762889830508},{"id":3163,"department_code":"09","insee_code":"09301","zip_code":"09320","name":"Soulan","slug":"soulan","gps_lat":42.90639494318181,"gps_lng":1.2466525},{"id":3164,"department_code":"09","insee_code":"09302","zip_code":"09220","name":"Suc-et-Sentenac","slug":"suc et sentenac","gps_lat":42.80409626086954,"gps_lng":1.44920826086957},{"id":3165,"department_code":"09","insee_code":"09303","zip_code":"09400","name":"Surba","slug":"surba","gps_lat":42.8587687878788,"gps_lng":1.58212515151515},{"id":3166,"department_code":"09","insee_code":"09304","zip_code":"09240","name":"Suzan","slug":"suzan","gps_lat":43.028545625,"gps_lng":1.431073125},{"id":3201,"department_code":"09","insee_code":"09342","zip_code":"09130","name":"Sainte-Suzanne","slug":"sainte suzanne","gps_lat":43.20511047244092,"gps_lng":1.37381377952756},{"id":3520,"department_code":"10","insee_code":"10333","zip_code":"10120","name":"Saint-André-les-Vergers","slug":"saint andre les vergers","gps_lat":48.28080357142856,"gps_lng":4.05297178571429},{"id":3521,"department_code":"10","insee_code":"10334","zip_code":"10400","name":"Saint-Aubin","slug":"saint aubin","gps_lat":48.48554015384614,"gps_lng":3.55355246153846},{"id":3522,"department_code":"10","insee_code":"10335","zip_code":"10160","name":"Saint-Benoist-sur-Vanne","slug":"saint benoist sur vanne","gps_lat":48.23123672727272,"gps_lng":3.67616054545455},{"id":3523,"department_code":"10","insee_code":"10336","zip_code":"10180","name":"Saint-Benoît-sur-Seine","slug":"saint benoit sur seine","gps_lat":48.37108714285714,"gps_lng":4.03551738095238},{"id":3524,"department_code":"10","insee_code":"10337","zip_code":"10500","name":"Saint-Christophe-Dodinicourt","slug":"saint christophe dodinicourt","gps_lat":48.43664,"gps_lng":4.4708138028169},{"id":3525,"department_code":"10","insee_code":"10338","zip_code":"10700","name":"Saint-Étienne-sous-Barbuise","slug":"saint etienne sous barbuise","gps_lat":48.49258617647059,"gps_lng":4.10981647058824},{"id":3526,"department_code":"10","insee_code":"10339","zip_code":"10350","name":"Saint-Flavy","slug":"saint flavy","gps_lat":48.4030094871795,"gps_lng":3.77181333333333},{"id":3527,"department_code":"10","insee_code":"10340","zip_code":"10120","name":"Saint-Germain","slug":"saint germain","gps_lat":48.25152666666666,"gps_lng":4.01473217948718},{"id":3528,"department_code":"10","insee_code":"10341","zip_code":"10100","name":"Saint-Hilaire-sous-Romilly","slug":"saint hilaire sous romilly","gps_lat":48.50564219047619,"gps_lng":3.65654876190476},{"id":3529,"department_code":"10","insee_code":"10342","zip_code":"10320","name":"Saint-Jean-de-Bonneval","slug":"saint jean de bonneval","gps_lat":48.17130824324323,"gps_lng":4.05603905405406},{"id":3530,"department_code":"10","insee_code":"10343","zip_code":"10800","name":"Saint-Julien-les-Villas","slug":"saint julien les villas","gps_lat":48.27438536231883,"gps_lng":4.10687985507246},{"id":3531,"department_code":"10","insee_code":"10344","zip_code":"10800","name":"Saint-Léger-près-Troyes","slug":"saint leger pres troyes","gps_lat":48.23934117117117,"gps_lng":4.07242171171171},{"id":3532,"department_code":"10","insee_code":"10345","zip_code":"10500","name":"Saint-Léger-sous-Brienne","slug":"saint leger sous brienne","gps_lat":48.40886938931298,"gps_lng":4.49667847328244},{"id":3533,"department_code":"10","insee_code":"10346","zip_code":"10330","name":"Saint-Léger-sous-Margerie","slug":"saint leger sous margerie","gps_lat":48.53251098360656,"gps_lng":4.48858836065574},{"id":3534,"department_code":"10","insee_code":"10347","zip_code":"10100","name":"Saint-Loup-de-Buffigny","slug":"saint loup de buffigny","gps_lat":48.44219447058823,"gps_lng":3.62707964705882},{"id":3535,"department_code":"10","insee_code":"10348","zip_code":"10350","name":"Saint-Lupien","slug":"saint lupien","gps_lat":48.35917323529412,"gps_lng":3.69994941176471},{"id":3536,"department_code":"10","insee_code":"10349","zip_code":"10180","name":"Saint-Lyé","slug":"saint lye","gps_lat":48.34825924137929,"gps_lng":3.98082193103448},{"id":3537,"department_code":"10","insee_code":"10350","zip_code":"10160","name":"Saint-Mards-en-Othe","slug":"saint mards en othe","gps_lat":48.16331490797541,"gps_lng":3.7954392638036802},{"id":3538,"department_code":"10","insee_code":"10351","zip_code":"10100","name":"Saint-Martin-de-Bossenay","slug":"saint martin de bossenay","gps_lat":48.44299780000002,"gps_lng":3.6798949},{"id":3539,"department_code":"10","insee_code":"10352","zip_code":"10150","name":"Sainte-Maure","slug":"sainte maure","gps_lat":48.35290227941176,"gps_lng":4.06329882352941},{"id":3540,"department_code":"10","insee_code":"10353","zip_code":"10280","name":"Saint-Mesmin","slug":"saint mesmin","gps_lat":48.44356471428572,"gps_lng":3.91163964285714},{"id":3541,"department_code":"10","insee_code":"10354","zip_code":"10700","name":"Saint-Nabord-sur-Aube","slug":"saint nabord sur aube","gps_lat":48.51841474358974,"gps_lng":4.21013192307692},{"id":3542,"department_code":"10","insee_code":"10355","zip_code":"10400","name":"Saint-Nicolas-la-Chapelle","slug":"saint nicolas la chapelle","gps_lat":48.51937052173915,"gps_lng":3.48044408695652},{"id":3543,"department_code":"10","insee_code":"10356","zip_code":"10170","name":"Saint-Oulph","slug":"saint oulph","gps_lat":48.51928221238936,"gps_lng":3.86108238938053},{"id":3544,"department_code":"10","insee_code":"10357","zip_code":"10410","name":"Saint-Parres-aux-Tertres","slug":"saint parres aux tertres","gps_lat":48.29054900763359,"gps_lng":4.12529854961832},{"id":3545,"department_code":"10","insee_code":"10358","zip_code":"10260","name":"Saint-Parres-lès-Vaudes","slug":"saint parres les vaudes","gps_lat":48.17430539473683,"gps_lng":4.22098526315789},{"id":3546,"department_code":"10","insee_code":"10359","zip_code":"10130","name":"Saint-Phal","slug":"saint phal","gps_lat":48.11340460937502,"gps_lng":3.9952637890625002},{"id":3547,"department_code":"10","insee_code":"10360","zip_code":"10120","name":"Saint-Pouange","slug":"saint pouange","gps_lat":48.22886909090909,"gps_lng":4.04597272727273},{"id":3548,"department_code":"10","insee_code":"10361","zip_code":"10700","name":"Saint-Remy-sous-Barbuise","slug":"saint remy sous barbuise","gps_lat":48.47920674999999,"gps_lng":4.1340535},{"id":3549,"department_code":"10","insee_code":"10362","zip_code":"10300","name":"Sainte-Savine","slug":"sainte savine","gps_lat":48.296013265306144,"gps_lng":4.03335142857143},{"id":3550,"department_code":"10","insee_code":"10363","zip_code":"10800","name":"Saint-Thibault","slug":"saint thibault","gps_lat":48.20341186666668,"gps_lng":4.14926653333334},{"id":3551,"department_code":"10","insee_code":"10364","zip_code":"10360","name":"Saint-Usage","slug":"saint usage","gps_lat":48.09710680327866,"gps_lng":4.64027590163934},{"id":3552,"department_code":"10","insee_code":"10365","zip_code":"10700","name":"Salon","slug":"salon","gps_lat":48.63963670588235,"gps_lng":4.01577341176471},{"id":3553,"department_code":"10","insee_code":"10366","zip_code":"10200","name":"Saulcy","slug":"saulcy","gps_lat":48.27632024,"gps_lng":4.8334288},{"id":3555,"department_code":"10","insee_code":"10368","zip_code":"10600","name":"Savières","slug":"savieres","gps_lat":48.41524165467627,"gps_lng":3.9454337410072},{"id":3556,"department_code":"10","insee_code":"10369","zip_code":"10700","name":"Semoine","slug":"semoine","gps_lat":48.67258706666667,"gps_lng":4.0791836},{"id":3557,"department_code":"10","insee_code":"10370","zip_code":"10400","name":"Soligny-les-Étangs","slug":"soligny les etangs","gps_lat":48.40481243902439,"gps_lng":3.50932804878049},{"id":3558,"department_code":"10","insee_code":"10371","zip_code":"10320","name":"Sommeval","slug":"sommeval","gps_lat":48.15924866666668,"gps_lng":3.95599588888889},{"id":3559,"department_code":"10","insee_code":"10372","zip_code":"10200","name":"Soulaines-Dhuys","slug":"soulaines dhuys","gps_lat":48.38047969543146,"gps_lng":4.70729177664974},{"id":3560,"department_code":"10","insee_code":"10373","zip_code":"10320","name":"Souligny","slug":"souligny","gps_lat":48.20255374999999,"gps_lng":3.97855402777778},{"id":3561,"department_code":"10","insee_code":"10374","zip_code":"10200","name":"Spoy","slug":"spoy","gps_lat":48.22676499999999,"gps_lng":4.61645083333333},{"id":3956,"department_code":"11","insee_code":"11331","zip_code":"11270","name":"Saint-Amans","slug":"saint amans","gps_lat":43.23045640350878,"gps_lng":1.8850749122807},{"id":3957,"department_code":"11","insee_code":"11332","zip_code":"11200","name":"Saint-André-de-Roquelongue","slug":"saint andre de roquelongue","gps_lat":43.10945235294119,"gps_lng":2.8471647794117603},